[
  {
    "nome_completo": "Abraham Adrian Albert",
    "nome_curto": "A Adrian Albert",
    "link": "https://mathshistory.st-andrews.ac.uk/Biographies/Albert_Abraham/",
    "data_nascimento": "9 November 1905",
    "data_morte": "6 June 1972",
    "lat_nasc": 41.8755616,
    "lon_nasc": -87.6244212,
    "lat_morte": 41.8755616,
    "lon_morte": -87.6244212
  },
  {
    "nome_completo": "A A Krishnaswami Ayyangar",
    "nome_curto": "A A Krishnaswami Ayyangar",
    "link": "https://mathshistory.st-andrews.ac.uk/Biographies/Ayyangar/",
    "data_nascimento": "1 December 1892",
    "data_morte": "June 1953",
    "lat_nasc": 10.9094334,
    "lon_nasc": 78.3665347,
    "lat_morte": 12.3051828,
    "lon_morte": 76.6553609
  },
  {
    "nome_completo": "Abdel-Shafy Fahmy Obada",
    "nome_curto": "Abdel-Shafy Obada",
    "link": "https://mathshistory.st-andrews.ac.uk/Biographies/Obada/",
    "data_nascimento": "20 November 1942",
    "data_morte": null,
    "lat_nasc": 27.1758583,
    "lon_nasc": 31.2006123
  },
  {
    "nome_completo": "Abigail A Thompson",
    "nome_curto": "Abigail Thompson",
    "link": "https://mathshistory.st-andrews.ac.uk/Biographies/Thompson_Abigail/",
    "data_nascimento": "30 June 1958",
    "data_morte": null,
    "lat_nasc": 41.1175966,
    "lon_nasc": -73.4078968
  },
  {
    "nome_completo": "Abdulalim Abdullah Shabazz",
    "nome_curto": "Abdulalim Shabazz",
    "link": "https://mathshistory.st-andrews.ac.uk/Biographies/Shabazz/",
    "data_nascimento": "22 May 1927",
    "data_morte": "25 June 2014",
    "lat_nasc": 33.4017766,
    "lon_nasc": -86.954437,
    "lat_morte": 32.5276503,
    "lon_morte": -92.7140403
  },
  {
    "nome_completo": "Abraham de Moivre",
    "nome_curto": "Abraham de Moivre",
    "link": "https://mathshistory.st-andrews.ac.uk/Biographies/De_Moivre/",
    "data_nascimento": "26 May 1667",
    "data_morte": "27 November 1754",
    "lat_nasc": 48.7262225,
    "lon_nasc": 4.5851622,
    "lat_morte": 51.4893335,
    "lon_morte": -0.1440551
  },
  {
    "nome_completo": "Abraham bar Hiyya Ha-Nasi",
    "nome_curto": "Abraham bar Hiyya",
    "link": "https://mathshistory.st-andrews.ac.uk/Biographies/Abraham/",
    "data_nascimento": "1070",
    "data_morte": "1136",
    "lat_nasc": 39.3260685,
    "lon_nasc": -4.8379791,
    "lat_morte": 44.0580563,
    "lon_morte": 6.0638506
  },
  {
    "nome_completo": "Adolf Abraham Halevi Fraenkel",
    "nome_curto": "Abraham Fraenkel",
    "link": "https://mathshistory.st-andrews.ac.uk/Biographies/Fraenkel/",
    "data_nascimento": "17 February 1891",
    "data_morte": "15 October 1965",
    "lat_nasc": 48.1371079,
    "lon_nasc": 11.5753822,
    "lat_morte": 31.7788242,
    "lon_morte": 35.2257626
  },
  {
    "nome_completo": "Abraham Markham Gelbart",
    "nome_curto": "Abraham Gelbart",
    "link": "https://mathshistory.st-andrews.ac.uk/Biographies/Gelbart/",
    "data_nascimento": "2 December 1911",
    "data_morte": "7 September 1994",
    "lat_nasc": 40.9167654,
    "lon_nasc": -74.171811,
    "lat_morte": 40.7896239,
    "lon_morte": -73.9598939
  },
  {
    "nome_completo": "Abraham Gotthelf Kästner",
    "nome_curto": "Abraham Kästner",
    "link": "https://mathshistory.st-andrews.ac.uk/Biographies/Kaestner/",
    "data_nascimento": "27 September 1719",
    "data_morte": "20 June 1800",
    "lat_nasc": 51.3406321,
    "lon_nasc": 12.3747329,
    "lat_morte": 51.5328328,
    "lon_morte": 9.9351811
  },
  {
    "nome_completo": "Abraham Ezechiel Plessner",
    "nome_curto": "Abraham Plessner",
    "link": "https://mathshistory.st-andrews.ac.uk/Biographies/Plessner/",
    "data_nascimento": "13 February 1900",
    "data_morte": "18 April 1961",
    "lat_nasc": 51.7687323,
    "lon_nasc": 19.4569911,
    "lat_morte": 55.8051354,
    "lon_morte": 37.5107086
  },
  {
    "nome_completo": "Abraham Robinson",
    "nome_curto": "Abraham Robinson",
    "link": "https://mathshistory.st-andrews.ac.uk/Biographies/Robinson/",
    "data_nascimento": "6 October 1918",
    "data_morte": "11 April 1974",
    "lat_nasc": 50.7659054,
    "lon_nasc": 16.2825424,
    "lat_morte": 41.3082138,
    "lon_morte": -72.9250518
  },
  {
    "nome_completo": "Abraham Seidenberg",
    "nome_curto": "Abraham Seidenberg",
    "link": "https://mathshistory.st-andrews.ac.uk/Biographies/Seidenberg/",
    "data_nascimento": "2 June 1916",
    "data_morte": "3 May 1988",
    "lat_nasc": 38.8950368,
    "lon_nasc": -77.0365427,
    "lat_morte": 45.4641943,
    "lon_morte": 9.1896346
  },
  {
    "nome_completo": "Abraham Sharp",
    "nome_curto": "Abraham Sharp",
    "link": "https://mathshistory.st-andrews.ac.uk/Biographies/Sharp/",
    "data_nascimento": "1653",
    "data_morte": "18 July 1742",
    "lat_nasc": 53.9825271,
    "lon_nasc": -1.38525,
    "lat_morte": 53.9825271,
    "lon_morte": -1.38525
  },
  {
    "nome_completo": "Abraham Wald",
    "nome_curto": "Abraham Wald",
    "link": "https://mathshistory.st-andrews.ac.uk/Biographies/Wald/",
    "data_nascimento": "31 October 1902",
    "data_morte": "13 December 1950",
    "lat_nasc": 46.769379,
    "lon_nasc": 23.5899542,
    "lat_morte": 8.8750297,
    "lon_morte": 76.6448586
  },
  {
    "nome_completo": "Avraham Naumovich Trahtman",
    "nome_curto": "Abram Naumovich Trakhtman",
    "link": "https://mathshistory.st-andrews.ac.uk/Biographies/Trahtman/",
    "data_nascimento": "10 February 1944",
    "data_morte": null,
    "lat_nasc": 57.13541,
    "lon_nasc": 60.150059
  },
  {
    "nome_completo": "Abram Samoilovitch Besicovitch",
    "nome_curto": "Abram Samoilovitch Besicovitch",
    "link": "https://mathshistory.st-andrews.ac.uk/Biographies/Besicovitch/",
    "data_nascimento": "24 January 1891",
    "data_morte": "2 November 1970",
    "lat_nasc": 46.755678,
    "lon_nasc": 36.7887623,
    "lat_morte": 52.2055314,
    "lon_morte": 0.1186637
  },
  {
    "nome_completo": "Abu Kamil Shuja ibn Aslam ibn Muhammad ibn Shuja",
    "nome_curto": "Abu Kamil Shuja",
    "link": "https://mathshistory.st-andrews.ac.uk/Biographies/Abu_Kamil/",
    "data_nascimento": "about 850",
    "data_morte": "about 930",
    "lat_nasc": 26.2540493,
    "lon_nasc": 29.2675469
  },
  {
    "nome_completo": "Achille Pierre Dionis du Séjour",
    "nome_curto": "Achille-Pierre Dionis du Séjour",
    "link": "https://mathshistory.st-andrews.ac.uk/Biographies/Dionis/",
    "data_nascimento": "11 January 1734",
    "data_morte": "22 August 1794",
    "lat_nasc": 48.8588897,
    "lon_nasc": 2.320041,
    "lat_morte": 46.603354,
    "lon_morte": 1.8883335
  },
  {
    "nome_completo": "Mohammad Abu'l-Wafa Al-Buzjani",
    "nome_curto": "Abu'l-Wafa",
    "link": "https://mathshistory.st-andrews.ac.uk/Biographies/Abul-Wafa/",
    "data_nascimento": "10 June 0940",
    "data_morte": "15 July 998",
    "lat_nasc": 35.7679957,
    "lon_nasc": 50.0579667,
    "lat_morte": 39.6541763,
    "lon_morte": -86.1999496
  },
  {
    "nome_completo": "Achsah Mount Ely",
    "nome_curto": "Achsah Ely",
    "link": "https://mathshistory.st-andrews.ac.uk/Biographies/Ely/",
    "data_nascimento": "10 November 1846",
    "data_morte": "13 December 1904",
    "lat_nasc": 40.2537219,
    "lon_nasc": -74.3415369,
    "lat_morte": 41.7065539,
    "lon_morte": -73.9283672
  },
  {
    "nome_completo": "Adam Wilhelm Siegmund Günther",
    "nome_curto": "Adam Günther",
    "link": "https://mathshistory.st-andrews.ac.uk/Biographies/Guenther/",
    "data_nascimento": "6 February 1848",
    "data_morte": "3 February 1923",
    "lat_nasc": 49.453872,
    "lon_nasc": 11.077298,
    "lat_morte": 48.1371079,
    "lon_morte": 11.5753822
  },
  {
    "nome_completo": "Augusta Ada Byron King, countess of Lovelace",
    "nome_curto": "Ada Lovelace",
    "link": "https://mathshistory.st-andrews.ac.uk/Biographies/Lovelace/",
    "data_nascimento": "10 December 1815",
    "data_morte": "27 November 1852",
    "lat_nasc": 39.625602,
    "lon_nasc": -85.9202594,
    "lat_morte": 51.5232789,
    "lon_morte": -0.155596
  },
  {
    "nome_completo": "Adam Ries",
    "nome_curto": "Adam Ries",
    "link": "https://mathshistory.st-andrews.ac.uk/Biographies/Ries/",
    "data_nascimento": "23 December 1492",
    "data_morte": "30 March 1559",
    "lat_nasc": 51.1638175,
    "lon_nasc": 10.4478313,
    "lat_morte": 50.5788781,
    "lon_morte": 13.0106108
  },
  {
    "nome_completo": "Adelard of Bath",
    "nome_curto": "Adelard",
    "link": "https://mathshistory.st-andrews.ac.uk/Biographies/Adelard/",
    "data_nascimento": "1075",
    "data_morte": "1160",
    "lat_nasc": 51.3813864,
    "lon_nasc": -2.3596963
  },
  {
    "nome_completo": "Adegoke Olubummo",
    "nome_curto": "Adegoke Olubummo",
    "link": "https://mathshistory.st-andrews.ac.uk/Biographies/Olubummo_Adegoke/",
    "data_nascimento": "19 April 1923",
    "data_morte": "26 October 1992",
    "lat_nasc": 7.0209686,
    "lon_nasc": 5.0567477,
    "lat_morte": 7.0209686,
    "lon_morte": 5.0567477
  },
  {
    "nome_completo": "Carmen Adelina Gutiérrez Alonso Moreno",
    "nome_curto": "Adelina Gutiérrez Moreno",
    "link": "https://mathshistory.st-andrews.ac.uk/Biographies/Moreno/",
    "data_nascimento": "27 May 1925",
    "data_morte": "11 April 2015",
    "lat_nasc": -33.4377756,
    "lon_nasc": -70.6504502,
    "lat_morte": -33.4377756,
    "lon_morte": -70.6504502
  },
  {
    "nome_completo": "Aderemi Oluyomi Kuku",
    "nome_curto": "Aderemi Kuku",
    "link": "https://mathshistory.st-andrews.ac.uk/Biographies/Kuku/",
    "data_nascimento": "20 March 1941",
    "data_morte": "13 February 2022",
    "lat_nasc": 6.8140077,
    "lon_nasc": 3.9151668
  },
  {
    "nome_completo": "Adolf Hurwitz",
    "nome_curto": "Adolf Hurwitz",
    "link": "https://mathshistory.st-andrews.ac.uk/Biographies/Hurwitz/",
    "data_nascimento": "26 March 1859",
    "data_morte": "18 November 1919",
    "lat_nasc": 52.1527188,
    "lon_nasc": 9.9518083,
    "lat_morte": 47.3744489,
    "lon_morte": 8.5410422
  },
  {
    "nome_completo": "Adolf Kiefer",
    "nome_curto": "Adolf Kiefer",
    "link": "https://mathshistory.st-andrews.ac.uk/Biographies/Kiefer_Adolf/",
    "data_nascimento": "22 June 1857",
    "data_morte": "15 November 1929",
    "lat_nasc": 47.1550645,
    "lon_nasc": 7.269997,
    "lat_morte": 47.3744489,
    "lon_morte": 8.5410422
  },
  {
    "nome_completo": "Adolf Kneser",
    "nome_curto": "Adolf Kneser",
    "link": "https://mathshistory.st-andrews.ac.uk/Biographies/Kneser/",
    "data_nascimento": "19 March 1862",
    "data_morte": "24 January 1930",
    "lat_nasc": 53.9778899,
    "lon_nasc": 13.9605753,
    "lat_morte": 51.1263106,
    "lon_morte": 16.9781963
  },
  {
    "nome_completo": "Adolf Weiler",
    "nome_curto": "Adolf Weiler",
    "link": "https://mathshistory.st-andrews.ac.uk/Biographies/Weiler/",
    "data_nascimento": "27 December 1851",
    "data_morte": "1 May 1916",
    "lat_nasc": 47.4991723,
    "lon_nasc": 8.7291498,
    "lat_morte": 47.3744489,
    "lon_morte": 8.5410422
  },
  {
    "nome_completo": "Adolf Lindenbaum",
    "nome_curto": "Adolf Lindenbaum",
    "link": "https://mathshistory.st-andrews.ac.uk/Biographies/Lindenbaum/",
    "data_nascimento": "12 June 1904",
    "data_morte": "1942",
    "lat_nasc": 52.2337172,
    "lon_nasc": 21.0714322,
    "lat_morte": 54.6297422,
    "lon_morte": 25.1770585
  },
  {
    "nome_completo": "Gustav Adolph Göpel",
    "nome_curto": "Adolph Göpel",
    "link": "https://mathshistory.st-andrews.ac.uk/Biographies/Gopel/",
    "data_nascimento": "29 September 1812",
    "data_morte": "7 June 1847",
    "lat_nasc": 54.0886707,
    "lon_nasc": 12.1400211,
    "lat_morte": 52.510885,
    "lon_morte": 13.3989367
  },
  {
    "nome_completo": "Adolph Andrei Pavlovich Yushkevich",
    "nome_curto": "Adolph Pavlovich Yushkevich",
    "link": "https://mathshistory.st-andrews.ac.uk/Biographies/Yushkevich/",
    "data_nascimento": "15 July 1906",
    "data_morte": "17 July 1993",
    "lat_nasc": 46.4843023,
    "lon_nasc": 30.7322878,
    "lat_morte": 55.625578,
    "lon_morte": 37.6063916
  },
  {
    "nome_completo": "Lambert Adolphe Jacques Quetelet",
    "nome_curto": "Adolphe Quetelet",
    "link": "https://mathshistory.st-andrews.ac.uk/Biographies/Quetelet/",
    "data_nascimento": "22 February 1796",
    "data_morte": "17 February 1874",
    "lat_nasc": 51.0538286,
    "lon_nasc": 3.7250121,
    "lat_morte": 50.8465573,
    "lon_morte": 4.351697
  },
  {
    "nome_completo": "Adolphe Rome",
    "nome_curto": "Adolphe Rome",
    "link": "https://mathshistory.st-andrews.ac.uk/Biographies/Rome/",
    "data_nascimento": "12 July 1889",
    "data_morte": "9 April 1971",
    "lat_nasc": 50.3942409,
    "lon_nasc": 5.9310335,
    "lat_morte": 50.8596758,
    "lon_morte": 4.7627977
  },
  {
    "nome_completo": "Adriaan Cornelis Zaanen",
    "nome_curto": "Adriaan Cornelis Zaanen",
    "link": "https://mathshistory.st-andrews.ac.uk/Biographies/Zaanen/",
    "data_nascimento": "14 June 1913",
    "data_morte": "1 April 2003",
    "lat_nasc": 51.9244424,
    "lon_nasc": 4.47775,
    "lat_morte": 52.1425779,
    "lon_morte": 4.4012224
  },
  {
    "nome_completo": "Adriaan van Roomen",
    "nome_curto": "Adriaan van Roomen",
    "link": "https://mathshistory.st-andrews.ac.uk/Biographies/Roomen/",
    "data_nascimento": "29 September 1561",
    "data_morte": "4 May 1615",
    "lat_nasc": 50.879202,
    "lon_nasc": 4.7011675,
    "lat_morte": 49.9995205,
    "lon_morte": 8.2736253
  },
  {
    "nome_completo": "Adriaan Vlacq",
    "nome_curto": "Adriaan Vlacq",
    "link": "https://mathshistory.st-andrews.ac.uk/Biographies/Vlacq/",
    "data_nascimento": "1600",
    "data_morte": "1667",
    "lat_nasc": 52.0181194,
    "lon_nasc": 4.7111221,
    "lat_morte": 52.0799838,
    "lon_morte": 4.3113461
  },
  {
    "nome_completo": "Adrien-Marie Legendre",
    "nome_curto": "Adrien-Marie Legendre",
    "link": "https://mathshistory.st-andrews.ac.uk/Biographies/Legendre/",
    "data_nascimento": "18 September 1752",
    "data_morte": "10 January 1833",
    "lat_nasc": 48.8588897,
    "lon_nasc": 2.320041,
    "lat_morte": 48.8588897,
    "lon_morte": 2.320041
  },
  {
    "nome_completo": "Adrien Quentin Buée",
    "nome_curto": "Adrien Quentin Buée",
    "link": "https://mathshistory.st-andrews.ac.uk/Biographies/Buee/",
    "data_nascimento": "6 October 1745",
    "data_morte": "11 October 1825",
    "lat_nasc": 48.8588897,
    "lon_nasc": 2.320041,
    "lat_morte": 48.8588897,
    "lon_morte": 2.320041
  },
  {
    "nome_completo": "Agner Krarup Erlang",
    "nome_curto": "Agner Erlang",
    "link": "https://mathshistory.st-andrews.ac.uk/Biographies/Erlang/",
    "data_nascimento": "1 January 1878",
    "data_morte": "3 February 1929",
    "lat_nasc": 55.9396905,
    "lon_nasc": 9.3180562,
    "lat_morte": 55.6867243,
    "lon_morte": 12.5700724
  },
  {
    "nome_completo": "Adrien Auzout",
    "nome_curto": "Adrien Auzout",
    "link": "https://mathshistory.st-andrews.ac.uk/Biographies/Auzout/",
    "data_nascimento": "28 January 1622",
    "data_morte": "23 May 1691",
    "lat_nasc": 49.4404591,
    "lon_nasc": 1.0939658,
    "lat_morte": 42.6384261,
    "lon_morte": 12.674297
  },
  {
    "nome_completo": "Agnes Mary Clerke",
    "nome_curto": "Agnes Mary Clerke",
    "link": "https://mathshistory.st-andrews.ac.uk/Biographies/Clerke/",
    "data_nascimento": "10 February 1842",
    "data_morte": "20 January 1907",
    "lat_nasc": 51.55,
    "lon_nasc": -9.2666753,
    "lat_morte": 51.4893335,
    "lon_morte": -0.1440551
  },
  {
    "nome_completo": "Agnes Sime Baxter",
    "nome_curto": "Agnes Baxter",
    "link": "https://mathshistory.st-andrews.ac.uk/Biographies/Baxter/",
    "data_nascimento": "18 March 1870",
    "data_morte": "9 March 1917",
    "lat_nasc": 44.648618,
    "lon_nasc": -63.5859487,
    "lat_morte": 38.951883,
    "lon_morte": -92.3337366
  },
  {
    "nome_completo": "Agnes Mary Scott",
    "nome_curto": "Agnes Scott",
    "link": "https://mathshistory.st-andrews.ac.uk/Biographies/Scott_Agnes/",
    "data_nascimento": "28 February 1894",
    "data_morte": "??",
    "lat_nasc": 49.2214561,
    "lon_nasc": -2.1358386
  },
  {
    "nome_completo": "Agnes Ermina Wells",
    "nome_curto": "Agnes Wells",
    "link": "https://mathshistory.st-andrews.ac.uk/Biographies/Wells/",
    "data_nascimento": "4 January 1876",
    "data_morte": "6 July 1959",
    "lat_nasc": 43.4200387,
    "lon_nasc": -83.9490365,
    "lat_morte": 43.4200387,
    "lon_morte": -83.9490365
  },
  {
    "nome_completo": "Ahmad Banu Musa",
    "nome_curto": "Ahmad Banu Musa",
    "link": "https://mathshistory.st-andrews.ac.uk/Biographies/Banu_Musa_Ahmad/",
    "data_nascimento": "about 805",
    "data_morte": "after 873",
    "lat_nasc": 33.3061701,
    "lon_nasc": 44.3872213,
    "lat_morte": 33.3061701,
    "lon_morte": 44.3872213
  },
  {
    "nome_completo": "Ágoston Scholtz",
    "nome_curto": "Ágoston Scholtz",
    "link": "https://mathshistory.st-andrews.ac.uk/Biographies/Scholtz/",
    "data_nascimento": "27 July 1844",
    "data_morte": "6 May 1916",
    "lat_nasc": 48.882696,
    "lon_nasc": 20.6770082,
    "lat_morte": 47.0933824,
    "lon_morte": 17.9080406
  },
  {
    "nome_completo": "Ahmes",
    "nome_curto": "Ahmes",
    "link": "https://mathshistory.st-andrews.ac.uk/Biographies/Ahmes/",
    "data_nascimento": "about 1680 BC",
    "data_morte": "about 1620 BC",
    "lat_nasc": 26.2540493,
    "lon_nasc": 29.2675469,
    "lat_morte": 26.2540493,
    "lon_morte": 29.2675469
  },
  {
    "nome_completo": "Ahmed ibn Yusuf  al-Misri",
    "nome_curto": "Ahmed ibn Yusuf",
    "link": "https://mathshistory.st-andrews.ac.uk/Biographies/Ahmed/",
    "data_nascimento": "835",
    "data_morte": "912",
    "lat_nasc": 39.6541763,
    "lon_nasc": -86.1999496,
    "lat_morte": 30.0443879,
    "lon_morte": 31.2357257
  },
  {
    "nome_completo": "Aida Yasuaki",
    "nome_curto": "Aida Yasuaki",
    "link": "https://mathshistory.st-andrews.ac.uk/Biographies/Aida/",
    "data_nascimento": "10 February 1747",
    "data_morte": "26 October 1817",
    "lat_nasc": 38.4746705,
    "lon_nasc": 140.083237,
    "lat_morte": 35.6768601,
    "lon_morte": 139.7638947
  },
  {
    "nome_completo": "Åke Vilhelm Carl Pleijel",
    "nome_curto": "Åke Pleijel",
    "link": "https://mathshistory.st-andrews.ac.uk/Biographies/Pleijel/",
    "data_nascimento": "10 August 1913",
    "data_morte": "24 September 1989",
    "lat_nasc": 59.3251172,
    "lon_nasc": 18.0710935,
    "lat_morte": 59.3251172,
    "lon_morte": 18.0710935
  },
  {
    "nome_completo": "Abu Mansur ibn Tahir Al-Baghdadi",
    "nome_curto": "Al-Baghdadi",
    "link": "https://mathshistory.st-andrews.ac.uk/Biographies/Al-Baghdadi/",
    "data_nascimento": "about 980",
    "data_morte": "1037",
    "lat_nasc": 33.3061701,
    "lon_nasc": 44.3872213
  },
  {
    "nome_completo": "Akos Seress",
    "nome_curto": "Akos Seress",
    "link": "https://mathshistory.st-andrews.ac.uk/Biographies/Seress/",
    "data_nascimento": "24 November 1958",
    "data_morte": "13 February 2013",
    "lat_nasc": 47.4978789,
    "lon_nasc": 19.0402383,
    "lat_morte": 39.9622601,
    "lon_morte": -83.0007065
  },
  {
    "nome_completo": "Abu Arrayhan Muhammad ibn Ahmad al-Biruni",
    "nome_curto": "Al-Biruni",
    "link": "https://mathshistory.st-andrews.ac.uk/Biographies/Al-Biruni/",
    "data_nascimento": "15 September 0973",
    "data_morte": "13 December 1048",
    "lat_nasc": 43.7738841,
    "lon_nasc": 57.6234617,
    "lat_morte": 33.5448968,
    "lon_morte": 68.4132108
  },
  {
    "nome_completo": "Kamal al-Din Abu'l Hasan Muhammad Al-Farisi",
    "nome_curto": "Al-Farisi",
    "link": "https://mathshistory.st-andrews.ac.uk/Biographies/Al-Farisi/",
    "data_nascimento": "about 1260",
    "data_morte": "about 1320",
    "lat_morte": 38.0738612,
    "lon_morte": 46.2978789
  },
  {
    "nome_completo": "al-Hasan Banu Musa",
    "nome_curto": "al-Hasan Banu Musa",
    "link": "https://mathshistory.st-andrews.ac.uk/Biographies/Banu_Musa_al-Hasan/",
    "data_nascimento": "about 810",
    "data_morte": "after 873",
    "lat_nasc": 33.3061701,
    "lon_nasc": 44.3872213,
    "lat_morte": 33.3061701,
    "lon_morte": 44.3872213
  },
  {
    "nome_completo": "Abu Abdallah Mohammad ibn Jabir Al-Battani",
    "nome_curto": "Al-Battani",
    "link": "https://mathshistory.st-andrews.ac.uk/Biographies/Al-Battani/",
    "data_nascimento": "about 850",
    "data_morte": "929",
    "lat_nasc": 39.294076,
    "lon_nasc": 35.2316631,
    "lat_morte": 33.0955793,
    "lon_morte": 44.1749775
  },
  {
    "nome_completo": "al-Abbas ibn Said Al-Jawhari",
    "nome_curto": "al-Jawhari",
    "link": "https://mathshistory.st-andrews.ac.uk/Biographies/Al-Jawhari/",
    "data_nascimento": "about 800",
    "data_morte": "about 860",
    "lat_nasc": 33.0955793,
    "lon_nasc": 44.1749775,
    "lat_morte": 33.0955793,
    "lon_morte": 44.1749775
  },
  {
    "nome_completo": "Abu Abd Allah Muhammad ibn Muadh Al-Jayyani",
    "nome_curto": "al-Jayyani",
    "link": "https://mathshistory.st-andrews.ac.uk/Biographies/Al-Jayyani/",
    "data_nascimento": "989",
    "data_morte": "after 1079",
    "lat_nasc": 37.8845813,
    "lon_nasc": -4.7760138,
    "lat_morte": 39.3260685,
    "lon_morte": -4.8379791
  },
  {
    "nome_completo": "Abu Bekr ibn Muhammad ibn al-Husayn Al-Karaji",
    "nome_curto": "al-Karaji",
    "link": "https://mathshistory.st-andrews.ac.uk/Biographies/Al-Karaji/",
    "data_nascimento": "13 April 0953",
    "data_morte": "about 1029",
    "lat_nasc": 39.6541763,
    "lon_nasc": -86.1999496
  },
  {
    "nome_completo": "Ghiyath al-Din Jamshid Mas'ud al-Kashi",
    "nome_curto": "al-Kashi",
    "link": "https://mathshistory.st-andrews.ac.uk/Biographies/Al-Kashi/",
    "data_nascimento": "about 1380",
    "data_morte": "22 June 1429",
    "lat_nasc": 33.9876533,
    "lon_nasc": 51.4428856,
    "lat_morte": 39.654025,
    "lon_morte": 66.9734889
  },
  {
    "nome_completo": "Abu Jafar Muhammad ibn al-Hasan Al-Khazin",
    "nome_curto": "al-Khazin",
    "link": "https://mathshistory.st-andrews.ac.uk/Biographies/Al-Khazin/",
    "data_nascimento": "about 900",
    "data_morte": "about 971",
    "lat_nasc": 32.6475314,
    "lon_nasc": 54.5643516,
    "lat_morte": 24.6560366,
    "lon_morte": 56.1175814
  },
  {
    "nome_completo": "Shams al-Din Abu Abdallah Al-Khalili",
    "nome_curto": "Al-Khalili",
    "link": "https://mathshistory.st-andrews.ac.uk/Biographies/Al-Khalili/",
    "data_nascimento": "about 1320",
    "data_morte": "about 1380",
    "lat_nasc": 34.8147886,
    "lon_nasc": 38.4231781,
    "lat_morte": 34.8147886,
    "lon_morte": 38.4231781
  },
  {
    "nome_completo": "Abu Mahmud Hamid ibn al-Khidr Al-Khujandi",
    "nome_curto": "al-Khujandi",
    "link": "https://mathshistory.st-andrews.ac.uk/Biographies/Al-Khujandi/",
    "data_nascimento": "about 940",
    "data_morte": "1000",
    "lat_nasc": 40.2844189,
    "lon_nasc": 69.6191669
  },
  {
    "nome_completo": "Abu Yusuf Yaqub ibn Ishaq al-Sabbah Al-Kindi",
    "nome_curto": "Al-Kindi",
    "link": "https://mathshistory.st-andrews.ac.uk/Biographies/Al-Kindi/",
    "data_nascimento": "about 801",
    "data_morte": "873",
    "lat_nasc": 32.03444,
    "lon_nasc": 44.4031125,
    "lat_morte": 33.3061701,
    "lon_morte": 44.3872213
  },
  {
    "nome_completo": "Abu Ja'far Muhammad ibn Musa Al-Khwarizmi",
    "nome_curto": "Al-Khwarizmi",
    "link": "https://mathshistory.st-andrews.ac.uk/Biographies/Al-Khwarizmi/",
    "data_nascimento": "about 780",
    "data_morte": "about 850",
    "lat_nasc": 39.6541763,
    "lon_nasc": -86.1999496
  },
  {
    "nome_completo": "Abu Abd Allah Muhammad ibn Isa Al-Mahani",
    "nome_curto": "al-Mahani",
    "link": "https://mathshistory.st-andrews.ac.uk/Biographies/Al-Mahani/",
    "data_nascimento": "about 820",
    "data_morte": "880",
    "lat_nasc": 30.0536359,
    "lon_nasc": 57.2883027,
    "lat_morte": 33.3061701,
    "lon_morte": 44.3872213
  },
  {
    "nome_completo": "Abu l'Hasan Ali ibn Ahmad Al-Nasawi",
    "nome_curto": "al-Nasawi",
    "link": "https://mathshistory.st-andrews.ac.uk/Biographies/Al-Nasawi/",
    "data_nascimento": "about 1010",
    "data_morte": "about 1075",
    "lat_nasc": 32.6475314,
    "lon_nasc": 54.5643516,
    "lat_morte": 33.0955793,
    "lon_morte": 44.1749775
  },
  {
    "nome_completo": "Abu'l Abbas al-Fadl ibn Hatim Al-Nayrizi",
    "nome_curto": "Al-Nayrizi",
    "link": "https://mathshistory.st-andrews.ac.uk/Biographies/Al-Nayrizi/",
    "data_nascimento": "about 865",
    "data_morte": "about 922",
    "lat_nasc": 32.6475314,
    "lon_nasc": 54.5643516,
    "lat_morte": 33.0955793,
    "lon_morte": 44.1749775
  },
  {
    "nome_completo": "Abu'l Hasan ibn Ali al Qalasadi",
    "nome_curto": "Al-Qalasadi",
    "link": "https://mathshistory.st-andrews.ac.uk/Biographies/Al-Qalasadi/",
    "data_nascimento": "1412",
    "data_morte": "1486",
    "lat_nasc": 37.4888637,
    "lon_nasc": -2.7709805,
    "lat_morte": 36.7236755,
    "lon_morte": 9.185382
  },
  {
    "nome_completo": "Ibn Yahya al-Maghribi Al-Samawal",
    "nome_curto": "Al-Samawal",
    "link": "https://mathshistory.st-andrews.ac.uk/Biographies/Al-Samawal/",
    "data_nascimento": "about 1130",
    "data_morte": "about 1180",
    "lat_nasc": 33.3061701,
    "lon_nasc": 44.3872213,
    "lat_morte": 37.3913128,
    "lon_morte": 46.2435751
  },
  {
    "nome_completo": "Abu Sahl Waijan ibn Rustam al-Quhi",
    "nome_curto": "Al-Quhi",
    "link": "https://mathshistory.st-andrews.ac.uk/Biographies/Al-Quhi/",
    "data_nascimento": "about 940",
    "data_morte": "about 1000",
    "lat_nasc": 36.3159159,
    "lon_nasc": 51.8968597
  },
  {
    "nome_completo": "Abu Said Ahmad ibn Muhammad Al-Sijzi",
    "nome_curto": "Al-Sijzi",
    "link": "https://mathshistory.st-andrews.ac.uk/Biographies/Al-Sijzi/",
    "data_nascimento": "about 945",
    "data_morte": "about 1020",
    "lat_nasc": 32.6475314,
    "lon_nasc": 54.5643516
  },
  {
    "nome_completo": "Abu Abdallah Yaish ibn Ibrahim Al-Umawi",
    "nome_curto": "Al-Umawi",
    "link": "https://mathshistory.st-andrews.ac.uk/Biographies/Al-Umawi/",
    "data_nascimento": "about 1400",
    "data_morte": "1489",
    "lat_nasc": 39.3260685,
    "lon_nasc": -4.8379791,
    "lat_morte": 34.8147886,
    "lon_morte": 38.4231781
  },
  {
    "nome_completo": "Abu Ishaq Ibrahim ibn Yahya al-Zarqali",
    "nome_curto": "al-Zarqali",
    "link": "https://mathshistory.st-andrews.ac.uk/Biographies/Al-Zarqali/",
    "data_nascimento": "1029",
    "data_morte": "15 October 1100",
    "lat_nasc": 37.8845813,
    "lon_nasc": -4.7760138,
    "lat_morte": 37.8845813,
    "lon_morte": -4.7760138
  },
  {
    "nome_completo": "Alain Connes",
    "nome_curto": "Alain Connes",
    "link": "https://mathshistory.st-andrews.ac.uk/Biographies/Connes/",
    "data_nascimento": "1 April 1947",
    "data_morte": null,
    "lat_nasc": 43.5374662,
    "lon_nasc": 6.4627333
  },
  {
    "nome_completo": "Alan Baker",
    "nome_curto": "Alan Baker",
    "link": "https://mathshistory.st-andrews.ac.uk/Biographies/Baker_Alan/",
    "data_nascimento": "19 August 1939",
    "data_morte": "4 February 2018",
    "lat_nasc": 51.4893335,
    "lon_nasc": -0.1440551,
    "lat_morte": 52.2055314,
    "lon_morte": 0.1186637
  },
  {
    "nome_completo": "Abu'l Hasan Ahmad ibn Ibrahim Al-Uqlidisi",
    "nome_curto": "Al-Uqlidisi",
    "link": "https://mathshistory.st-andrews.ac.uk/Biographies/Al-Uqlidisi/",
    "data_nascimento": "about 920",
    "data_morte": "about 980",
    "lat_nasc": 34.8147886,
    "lon_nasc": 38.4231781,
    "lat_morte": 34.8147886,
    "lon_morte": 38.4231781
  },
  {
    "nome_completo": "Thomas Arthur Alan Broadbent",
    "nome_curto": "Alan Broadbent",
    "link": "https://mathshistory.st-andrews.ac.uk/Biographies/Broadbent/",
    "data_nascimento": "31 May 1903",
    "data_morte": "27 January 1973",
    "lat_nasc": 54.8518781,
    "lon_nasc": -1.8333741,
    "lat_morte": 51.4820845,
    "lon_morte": -0.0045417
  },
  {
    "nome_completo": "Richard Alan Day",
    "nome_curto": "Alan Day",
    "link": "https://mathshistory.st-andrews.ac.uk/Biographies/Day/",
    "data_nascimento": "9 October 1941",
    "data_morte": "26 November 1990",
    "lat_nasc": 46.5126554,
    "lon_nasc": -84.3330301,
    "lat_morte": 48.406414,
    "lon_morte": -89.259796
  },
  {
    "nome_completo": "Alan Mathison Turing",
    "nome_curto": "Alan Turing",
    "link": "https://mathshistory.st-andrews.ac.uk/Biographies/Turing/",
    "data_nascimento": "23 June 1912",
    "data_morte": "7 June 1954",
    "lat_nasc": 51.4893335,
    "lon_nasc": -0.1440551,
    "lat_morte": 53.3261292,
    "lon_morte": -2.2327511
  },
  {
    "nome_completo": "Jean Paul Albert Badoureau",
    "nome_curto": "Albert Badoureau",
    "link": "https://mathshistory.st-andrews.ac.uk/Biographies/Badoureau/",
    "data_nascimento": "18 May 1853",
    "data_morte": "20 July 1923",
    "lat_nasc": 48.8588897,
    "lon_nasc": 2.320041,
    "lat_morte": 48.8588897,
    "lon_morte": 2.320041
  },
  {
    "nome_completo": "Alan Mercer",
    "nome_curto": "Alan Mercer",
    "link": "https://mathshistory.st-andrews.ac.uk/Biographies/Mercer_Alan/",
    "data_nascimento": "22 August 1931",
    "data_morte": "9 July 2014",
    "lat_nasc": 53.4824835,
    "lon_nasc": -1.5901625,
    "lat_morte": 54.0484068,
    "lon_morte": -2.7990345
  },
  {
    "nome_completo": "Albert Châtelet",
    "nome_curto": "Albert Châtelet",
    "link": "https://mathshistory.st-andrews.ac.uk/Biographies/Chatelet_Albert/",
    "data_nascimento": "24 October 1883",
    "data_morte": "30 June 1960",
    "lat_nasc": 50.4354194,
    "lon_nasc": 2.3754446,
    "lat_morte": 48.8588897,
    "lon_morte": 2.320041
  },
  {
    "nome_completo": "Albert Turner Bharucha-Reid",
    "nome_curto": "Albert Bharucha-Reid",
    "link": "https://mathshistory.st-andrews.ac.uk/Biographies/Bharucha-Reid/",
    "data_nascimento": "13 November 1927",
    "data_morte": "26 February 1985",
    "lat_nasc": 37.0264414,
    "lon_nasc": -76.3442846,
    "lat_morte": 33.7544657,
    "lon_morte": -84.3898151
  },
  {
    "nome_completo": "Albert Einstein",
    "nome_curto": "Albert Einstein",
    "link": "https://mathshistory.st-andrews.ac.uk/Biographies/Einstein/",
    "data_nascimento": "14 March 1879",
    "data_morte": "18 April 1955",
    "lat_nasc": 48.3984968,
    "lon_nasc": 9.9912458,
    "lat_morte": 40.3496953,
    "lon_morte": -74.6597376
  },
  {
    "nome_completo": "Albert Girard",
    "nome_curto": "Albert Girard",
    "link": "https://mathshistory.st-andrews.ac.uk/Biographies/Girard_Albert/",
    "data_nascimento": "1595",
    "data_morte": "8 December 1632",
    "lat_nasc": 48.891207,
    "lon_nasc": 5.5423046,
    "lat_morte": 52.1594747,
    "lon_morte": 4.4908843
  },
  {
    "nome_completo": "Albert Edward Ingham",
    "nome_curto": "Albert Ingham",
    "link": "https://mathshistory.st-andrews.ac.uk/Biographies/Ingham/",
    "data_nascimento": "3 April 1900",
    "data_morte": "6 September 1967",
    "lat_nasc": 52.2343367,
    "lon_nasc": -0.9028073,
    "lat_morte": 45.9246705,
    "lon_morte": 6.8727506
  },
  {
    "nome_completo": "Albert Nijenhuis",
    "nome_curto": "Albert Nijenhuis",
    "link": "https://mathshistory.st-andrews.ac.uk/Biographies/Nijenhuis/",
    "data_nascimento": "21 November 1926",
    "data_morte": "13 February 2015",
    "lat_nasc": 51.4392648,
    "lon_nasc": 5.478633,
    "lat_morte": 47.6038321,
    "lon_morte": -122.330062
  },
  {
    "nome_completo": "Albert of Saxony",
    "nome_curto": "Albert of Saxony",
    "link": "https://mathshistory.st-andrews.ac.uk/Biographies/Albert/",
    "data_nascimento": "1316",
    "data_morte": "8 July 1390",
    "lat_nasc": 52.3583463,
    "lon_nasc": 10.9692437,
    "lat_morte": 51.8953514,
    "lon_morte": 11.0520563
  },
  {
    "nome_completo": "Albert William Tucker",
    "nome_curto": "Albert Tucker",
    "link": "https://mathshistory.st-andrews.ac.uk/Biographies/Tucker_Albert/",
    "data_nascimento": "28 November 1905",
    "data_morte": "25 January 1995",
    "lat_nasc": 43.8975558,
    "lon_nasc": -78.8635324,
    "lat_morte": 40.269559,
    "lon_morte": -74.5232454
  },
  {
    "nome_completo": "Alberto Barajas Celis",
    "nome_curto": "Alberto Barajas",
    "link": "https://mathshistory.st-andrews.ac.uk/Biographies/Barajas/",
    "data_nascimento": "17 July 1913",
    "data_morte": "3 July 2004",
    "lat_nasc": 19.3207722,
    "lon_nasc": -99.1514678,
    "lat_morte": 19.3207722,
    "lon_morte": -99.1514678
  },
  {
    "nome_completo": "Friedrich Heinrich Albert Wangerin",
    "nome_curto": "Albert Wangerin",
    "link": "https://mathshistory.st-andrews.ac.uk/Biographies/Wangerin/",
    "data_nascimento": "18 November 1844",
    "data_morte": "25 October 1933",
    "lat_nasc": 52.517253,
    "lon_nasc": 13.3927431,
    "lat_morte": 51.4824354,
    "lon_morte": 11.9712985
  },
  {
    "nome_completo": "Alberto Pedro Calderón",
    "nome_curto": "Alberto Calderón",
    "link": "https://mathshistory.st-andrews.ac.uk/Biographies/Calderon/",
    "data_nascimento": "14 September 1920",
    "data_morte": "16 April 1998",
    "lat_nasc": -34.787093,
    "lon_nasc": -68.4381868,
    "lat_morte": 41.8755616,
    "lon_morte": -87.6244212
  },
  {
    "nome_completo": "Carlo Alberto Castigliano",
    "nome_curto": "Alberto Castigliano",
    "link": "https://mathshistory.st-andrews.ac.uk/Biographies/Castigliano/",
    "data_nascimento": "9 November 1847",
    "data_morte": "25 October 1884",
    "lat_nasc": 44.8260126,
    "lon_nasc": 8.2026863,
    "lat_morte": 45.4641943,
    "lon_morte": 9.1896346
  },
  {
    "nome_completo": "Alberto Dou i Mas de Xexas",
    "nome_curto": "Alberto Dou",
    "link": "https://mathshistory.st-andrews.ac.uk/Biographies/Dou/",
    "data_nascimento": "21 December 1915",
    "data_morte": "18 April 2009",
    "lat_nasc": 42.1822177,
    "lon_nasc": 2.4890211,
    "lat_morte": 41.4728432,
    "lon_morte": 2.0817809
  },
  {
    "nome_completo": "Saint Albertus Magnus",
    "nome_curto": "Albertus",
    "link": "https://mathshistory.st-andrews.ac.uk/Biographies/Albertus/",
    "data_nascimento": "about 1200",
    "data_morte": "15 November 1280",
    "lat_nasc": 48.5710836,
    "lon_nasc": 10.4305438,
    "lat_morte": 50.938361,
    "lon_morte": 6.959974
  },
  {
    "nome_completo": "Albin Herzog",
    "nome_curto": "Albin Herzog",
    "link": "https://mathshistory.st-andrews.ac.uk/Biographies/Herzog/",
    "data_nascimento": "26 October 1852",
    "data_morte": "13 June 1909",
    "lat_nasc": 47.3857085,
    "lon_nasc": 8.9663625,
    "lat_morte": 47.6461848,
    "lon_morte": 8.9157018
  },
  {
    "nome_completo": "Albrecht Fröhlich",
    "nome_curto": "Albrecht Fröhlich",
    "link": "https://mathshistory.st-andrews.ac.uk/Biographies/Frohlich/",
    "data_nascimento": "22 May 1916",
    "data_morte": "8 November 2001",
    "lat_nasc": 48.1371079,
    "lon_nasc": 11.5753822,
    "lat_morte": 52.2055314,
    "lon_morte": 0.1186637
  },
  {
    "nome_completo": "Alcuin of York",
    "nome_curto": "Alcuin",
    "link": "https://mathshistory.st-andrews.ac.uk/Biographies/Alcuin/",
    "data_nascimento": "735",
    "data_morte": "19 May 0804",
    "lat_nasc": 53.9590555,
    "lon_nasc": -1.0815361,
    "lat_morte": 47.3900474,
    "lon_morte": 0.6889268
  },
  {
    "nome_completo": "Albrecht Dürer",
    "nome_curto": "Albrecht Dürer",
    "link": "https://mathshistory.st-andrews.ac.uk/Biographies/Durer/",
    "data_nascimento": "21 May 1471",
    "data_morte": "6 April 1528",
    "lat_nasc": 48.7605956,
    "lon_nasc": 11.5078145,
    "lat_morte": 48.7605956,
    "lon_morte": 11.5078145
  },
  {
    "nome_completo": "Aldo Ghizzetti",
    "nome_curto": "Aldo Ghizzetti",
    "link": "https://mathshistory.st-andrews.ac.uk/Biographies/Ghizzetti/",
    "data_nascimento": "8 October 1908",
    "data_morte": "2 December 1992",
    "lat_nasc": 45.0677551,
    "lon_nasc": 7.6824892,
    "lat_morte": 45.0677551,
    "lon_morte": 7.6824892
  },
  {
    "nome_completo": "Aldo Andreotti",
    "nome_curto": "Aldo Andreotti",
    "link": "https://mathshistory.st-andrews.ac.uk/Biographies/Andreotti/",
    "data_nascimento": "15 March 1924",
    "data_morte": "21 February 1980",
    "lat_nasc": 43.7697955,
    "lon_nasc": 11.2556404,
    "lat_morte": 43.4714722,
    "lon_morte": 10.6797912
  },
  {
    "nome_completo": "Alexander Craig Aitken",
    "nome_curto": "Alec Aitken",
    "link": "https://mathshistory.st-andrews.ac.uk/Biographies/Aitken/",
    "data_nascimento": "1 April 1895",
    "data_morte": "3 November 1967",
    "lat_nasc": -45.8740984,
    "lon_nasc": 170.5035755,
    "lat_morte": 55.9533456,
    "lon_morte": -3.1883749
  },
  {
    "nome_completo": "Aleksandr Danilovic Aleksandrov",
    "nome_curto": "Aleksandr Aleksandrov",
    "link": "https://mathshistory.st-andrews.ac.uk/Biographies/Aleksandrov_Aleksandr/",
    "data_nascimento": "4 August 1912",
    "data_morte": "27 July 1999",
    "lat_nasc": 54.7767678,
    "lon_nasc": 39.6263678,
    "lat_morte": 59.938732,
    "lon_morte": 30.316229
  },
  {
    "nome_completo": "Aleksandr Mikhailovich Lyapunov",
    "nome_curto": "Aleksandr Mikhailovich Lyapunov",
    "link": "https://mathshistory.st-andrews.ac.uk/Biographies/Lyapunov/",
    "data_nascimento": "6 June 1857",
    "data_morte": "3 November 1918",
    "lat_nasc": 57.6263877,
    "lon_nasc": 39.8933705,
    "lat_morte": 55.7544455,
    "lon_morte": 37.6156865
  },
  {
    "nome_completo": "Aleksandr Ivanovich Nekrasov",
    "nome_curto": "Aleksandr Nekrasov",
    "link": "https://mathshistory.st-andrews.ac.uk/Biographies/Nekrasov/",
    "data_nascimento": "9 December 1883",
    "data_morte": "21 May 1957",
    "lat_nasc": 55.625578,
    "lon_nasc": 37.6063916,
    "lat_morte": 55.625578,
    "lon_morte": 37.6063916
  },
  {
    "nome_completo": "Aleksandr Gennadievich Kurosh",
    "nome_curto": "Aleksandr G Kurosh",
    "link": "https://mathshistory.st-andrews.ac.uk/Biographies/Kurosh/",
    "data_nascimento": "19 January 1908",
    "data_morte": "18 May 1971",
    "lat_nasc": 64.6863136,
    "lon_nasc": 97.7453061,
    "lat_morte": 55.625578,
    "lon_morte": 37.6063916
  },
  {
    "nome_completo": "Aleksandr Osipovich Gelfond",
    "nome_curto": "Aleksandr Osipovich Gelfond",
    "link": "https://mathshistory.st-andrews.ac.uk/Biographies/Gelfond/",
    "data_nascimento": "24 October 1906",
    "data_morte": "7 November 1968",
    "lat_nasc": 59.938732,
    "lon_nasc": 30.316229,
    "lat_morte": 55.625578,
    "lon_morte": 37.6063916
  },
  {
    "nome_completo": "Aleksandr Petrovich Kotelnikov",
    "nome_curto": "Aleksandr P Kotelnikov",
    "link": "https://mathshistory.st-andrews.ac.uk/Biographies/Kotelnikov/",
    "data_nascimento": "20 October 1865",
    "data_morte": "6 March 1944",
    "lat_nasc": 55.7823547,
    "lon_nasc": 49.1242266,
    "lat_morte": 55.8051354,
    "lon_morte": 37.5107086
  },
  {
    "nome_completo": "Aleksandr Nikolaevich Korkin",
    "nome_curto": "Aleksandr Nikolaevich Korkin",
    "link": "https://mathshistory.st-andrews.ac.uk/Biographies/Korkin/",
    "data_nascimento": "19 February 1837",
    "data_morte": "1 September 1908",
    "lat_nasc": 60.0391461,
    "lon_nasc": 43.1215213,
    "lat_morte": 59.938732,
    "lon_morte": 30.316229
  },
  {
    "nome_completo": "Aleksandr Yakovlevich Povzner",
    "nome_curto": "Aleksandr Yakovlevich Povzner",
    "link": "https://mathshistory.st-andrews.ac.uk/Biographies/Povzner/",
    "data_nascimento": "27 June 1915",
    "data_morte": "21 April 2008",
    "lat_nasc": 49.8607809,
    "lon_nasc": 33.7498787,
    "lat_morte": 38.8950368,
    "lon_morte": -77.0365427
  },
  {
    "nome_completo": "Aleksei Alekseevich Dezin",
    "nome_curto": "Aleksei Alekseevich Dezin",
    "link": "https://mathshistory.st-andrews.ac.uk/Biographies/Dezin/",
    "data_nascimento": "23 April 1923",
    "data_morte": "4 March 2008",
    "lat_nasc": 55.625578,
    "lon_nasc": 37.6063916,
    "lat_morte": 55.625578,
    "lon_morte": 37.6063916
  },
  {
    "nome_completo": "Aleksandr Yakovlevich Khinchin",
    "nome_curto": "Aleksandr Yakovlevich Khinchin",
    "link": "https://mathshistory.st-andrews.ac.uk/Biographies/Khinchin/",
    "data_nascimento": "19 July 1894",
    "data_morte": "18 November 1959",
    "lat_nasc": 64.6863136,
    "lon_nasc": 97.7453061,
    "lat_morte": 55.8051354,
    "lon_morte": 37.5107086
  },
  {
    "nome_completo": "Aleksei Ivanovich Kostrikin",
    "nome_curto": "Aleksei Kostrikin",
    "link": "https://mathshistory.st-andrews.ac.uk/Biographies/Kostrikin/",
    "data_nascimento": "12 February 1929",
    "data_morte": "22 September 2000",
    "lat_nasc": 48.7081906,
    "lon_nasc": 44.5153353,
    "lat_morte": 55.625578,
    "lon_morte": 37.6063916
  },
  {
    "nome_completo": "Aleksei Nikolaevich Krylov",
    "nome_curto": "Aleksei Krylov",
    "link": "https://mathshistory.st-andrews.ac.uk/Biographies/Krylov_Aleksei/",
    "data_nascimento": "15 August 1863",
    "data_morte": "26 October 1945",
    "lat_nasc": 54.3198007,
    "lon_nasc": 48.3352899,
    "lat_morte": 59.938732,
    "lon_morte": 30.316229
  },
  {
    "nome_completo": "Aleksei Vasilevich Pogorelov",
    "nome_curto": "Aleksei Vasilevich Pogorelov",
    "link": "https://mathshistory.st-andrews.ac.uk/Biographies/Pogorelov/",
    "data_nascimento": "3 March 1919",
    "data_morte": "17 December 2002",
    "lat_nasc": 64.6863136,
    "lon_nasc": 97.7453061,
    "lat_morte": 55.625578,
    "lon_morte": 37.6063916
  },
  {
    "nome_completo": "Alessandro Faedo",
    "nome_curto": "Alessandro Faedo",
    "link": "https://mathshistory.st-andrews.ac.uk/Biographies/Faedo/",
    "data_nascimento": "18 November 1913",
    "data_morte": "16 June 2001",
    "lat_nasc": 45.5445732,
    "lon_nasc": 11.2808956,
    "lat_morte": 43.4714722,
    "lon_morte": 10.6797912
  },
  {
    "nome_completo": "Alessandro Marco Benedetto Terracini",
    "nome_curto": "Alessandro Terracini",
    "link": "https://mathshistory.st-andrews.ac.uk/Biographies/Terracini/",
    "data_nascimento": "19 October 1889",
    "data_morte": "2 April 1968",
    "lat_nasc": 45.0677551,
    "lon_nasc": 7.6824892,
    "lat_morte": 45.0677551,
    "lon_morte": 7.6824892
  },
  {
    "nome_completo": "Alessandro Padoa",
    "nome_curto": "Alessandro Padoa",
    "link": "https://mathshistory.st-andrews.ac.uk/Biographies/Padoa/",
    "data_nascimento": "14 October 1868",
    "data_morte": "25 November 1937",
    "lat_nasc": 45.4371908,
    "lon_nasc": 12.3345898,
    "lat_morte": 44.40726,
    "lon_morte": 8.9338624
  },
  {
    "nome_completo": "Alexandre Aleksandrovich Kirillov",
    "nome_curto": "Alexander Aleksandrovich Kirillov",
    "link": "https://mathshistory.st-andrews.ac.uk/Biographies/Kirillov/",
    "data_nascimento": "9 May 1936",
    "data_morte": null,
    "lat_nasc": 55.625578,
    "lon_nasc": 37.6063916
  },
  {
    "nome_completo": "Alexander Andreevich Samarskii",
    "nome_curto": "Alexander Andreevich Samarskii",
    "link": "https://mathshistory.st-andrews.ac.uk/Biographies/Samarskii/",
    "data_nascimento": "19 February 1919",
    "data_morte": "11 February 2008",
    "lat_nasc": 47.7952806,
    "lon_nasc": 38.4798317,
    "lat_morte": 55.625578,
    "lon_morte": 37.6063916
  },
  {
    "nome_completo": "Alexander Duncan Davidson Craik",
    "nome_curto": "Alex Craik",
    "link": "https://mathshistory.st-andrews.ac.uk/Biographies/Craik/",
    "data_nascimento": "25 August 1938",
    "data_morte": "17 November 2019",
    "lat_nasc": 56.7315193,
    "lon_nasc": -2.6600193,
    "lat_morte": 56.3403902,
    "lon_morte": -2.7955844
  },
  {
    "nome_completo": "Alexander Barrie Grieve",
    "nome_curto": "Alexander Barrie Grieve",
    "link": "https://mathshistory.st-andrews.ac.uk/Biographies/Grieve/",
    "data_nascimento": "1 January 1886",
    "data_morte": "3 October 1952",
    "lat_nasc": 56.6193213,
    "lon_nasc": -3.86509,
    "lat_morte": 55.6982283,
    "lon_morte": -3.9813873
  },
  {
    "nome_completo": "Alexander Alekseevich Beilinson",
    "nome_curto": "Alexander Beilinson",
    "link": "https://mathshistory.st-andrews.ac.uk/Biographies/Beilinson/",
    "data_nascimento": "13 June 1957",
    "data_morte": null,
    "lat_nasc": 55.625578,
    "lon_nasc": 37.6063916
  },
  {
    "nome_completo": "Alexander Obiefoka Enukora Animalu",
    "nome_curto": "Alexander Animalu",
    "link": "https://mathshistory.st-andrews.ac.uk/Biographies/Animalu/",
    "data_nascimento": "28 August 1938",
    "data_morte": null,
    "lat_nasc": 9.6000359,
    "lon_nasc": 7.9999721
  },
  {
    "nome_completo": "Alexander Fairley Buchan",
    "nome_curto": "Alexander Buchan",
    "link": "https://mathshistory.st-andrews.ac.uk/Biographies/Buchan/",
    "data_nascimento": "6 July 1904",
    "data_morte": "10 January 1976",
    "lat_nasc": 55.9533456,
    "lon_nasc": -3.1883749,
    "lat_morte": 55.9533456,
    "lon_morte": -3.1883749
  },
  {
    "nome_completo": "Alexander George Burgess",
    "nome_curto": "Alexander Burgess",
    "link": "https://mathshistory.st-andrews.ac.uk/Biographies/Burgess/",
    "data_nascimento": "24 December 1872",
    "data_morte": "29 March 1932",
    "lat_nasc": 55.7743458,
    "lon_nasc": -3.9184134,
    "lat_morte": 55.8373085,
    "lon_morte": -5.0522439
  },
  {
    "nome_completo": "Alexander Brown",
    "nome_curto": "Alexander Brown",
    "link": "https://mathshistory.st-andrews.ac.uk/Biographies/Brown_Alexander/",
    "data_nascimento": "5 May 1877",
    "data_morte": "27 January 1947",
    "lat_nasc": 56.7861112,
    "lon_nasc": -4.1140518,
    "lat_morte": -33.9288301,
    "lon_morte": 18.4172197
  },
  {
    "nome_completo": "Alexander Doniphan Wallace",
    "nome_curto": "Alexander Doniphan Wallace",
    "link": "https://mathshistory.st-andrews.ac.uk/Biographies/Wallace_Alexander/",
    "data_nascimento": "21 August 1905",
    "data_morte": "16 October 1985",
    "lat_nasc": 37.0264414,
    "lon_nasc": -76.3442846,
    "lat_morte": 29.9759983,
    "lon_morte": -90.0782127
  },
  {
    "nome_completo": "Alexander Dinghas",
    "nome_curto": "Alexander Dinghas",
    "link": "https://mathshistory.st-andrews.ac.uk/Biographies/Dinghas/",
    "data_nascimento": "9 February 1908",
    "data_morte": "19 April 1974",
    "lat_nasc": 38.23166,
    "lon_nasc": 27.02997,
    "lat_morte": 52.510885,
    "lon_morte": 13.3989367
  },
  {
    "nome_completo": "Alexander Durie Russell",
    "nome_curto": "Alexander Durie Russell",
    "link": "https://mathshistory.st-andrews.ac.uk/Biographies/Russell_A_D/",
    "data_nascimento": "22 July 1872",
    "data_morte": "20 January 1955",
    "lat_nasc": 55.9533456,
    "lon_nasc": -3.1883749,
    "lat_morte": 55.861155,
    "lon_morte": -4.2501687
  },
  {
    "nome_completo": "Alexander Grothendieck",
    "nome_curto": "Alexander Grothendieck",
    "link": "https://mathshistory.st-andrews.ac.uk/Biographies/Grothendieck/",
    "data_nascimento": "28 March 1928",
    "data_morte": "13 November 2014",
    "lat_nasc": 52.510885,
    "lon_nasc": 13.3989367,
    "lat_morte": 42.9841865,
    "lon_morte": 1.1464455
  },
  {
    "nome_completo": "Alexander Ivanovich Skopin",
    "nome_curto": "Alexander Ivanovich Skopin",
    "link": "https://mathshistory.st-andrews.ac.uk/Biographies/Skopin/",
    "data_nascimento": "22 October 1927",
    "data_morte": "15 September 2003",
    "lat_nasc": 59.938732,
    "lon_nasc": 30.316229,
    "lat_morte": 59.938732,
    "lon_morte": 30.316229
  },
  {
    "nome_completo": "Alexander Semenovich Kronrod",
    "nome_curto": "Alexander Kronrod",
    "link": "https://mathshistory.st-andrews.ac.uk/Biographies/Kronrod/",
    "data_nascimento": "22 October 1921",
    "data_morte": "6 October 1986",
    "lat_nasc": 55.625578,
    "lon_nasc": 37.6063916,
    "lat_morte": 55.625578,
    "lon_morte": 37.6063916
  },
  {
    "nome_completo": "Aleksandr Aleksandrovich Friedmann",
    "nome_curto": "Alexander Friedmann",
    "link": "https://mathshistory.st-andrews.ac.uk/Biographies/Friedmann/",
    "data_nascimento": "16 June 1888",
    "data_morte": "16 September 1925",
    "lat_nasc": 59.938732,
    "lon_nasc": 30.316229,
    "lat_morte": 52.7002102,
    "lon_morte": 87.9764381
  },
  {
    "nome_completo": "Alexander Macfarlane",
    "nome_curto": "Alexander Macfarlane",
    "link": "https://mathshistory.st-andrews.ac.uk/Biographies/Macfarlane/",
    "data_nascimento": "21 April 1851",
    "data_morte": "28 August 1913",
    "lat_nasc": 56.5903642,
    "lon_nasc": -3.3409023,
    "lat_morte": 42.4057219,
    "lon_morte": -82.1853837
  },
  {
    "nome_completo": "Alexander Morgan",
    "nome_curto": "Alexander Morgan",
    "link": "https://mathshistory.st-andrews.ac.uk/Biographies/Morgan_Alexander/",
    "data_nascimento": "21 August 1860",
    "data_morte": "17 March 1946",
    "lat_nasc": 55.9725499,
    "lon_nasc": -3.1709492,
    "lat_morte": 55.9533456,
    "lon_morte": -3.1883749
  },
  {
    "nome_completo": "Alexander Johnson Merriles",
    "nome_curto": "Alexander Merriles",
    "link": "https://mathshistory.st-andrews.ac.uk/Biographies/Merriles/",
    "data_nascimento": "4 October 1880",
    "data_morte": "1950",
    "lat_nasc": 56.0581178,
    "lon_nasc": -2.7209129,
    "lat_morte": 56.2227638,
    "lon_morte": -2.7005643
  },
  {
    "nome_completo": "Alexander Oppenheim",
    "nome_curto": "Alexander Oppenheim",
    "link": "https://mathshistory.st-andrews.ac.uk/Biographies/Oppenheim/",
    "data_nascimento": "4 February 1903",
    "data_morte": "13 December 1997",
    "lat_nasc": 53.7484822,
    "lon_nasc": -2.4804005,
    "lat_morte": 51.5375786,
    "lon_morte": -0.9050287
  },
  {
    "nome_completo": "Alexander Markowich Ostrowski",
    "nome_curto": "Alexander Ostrowski",
    "link": "https://mathshistory.st-andrews.ac.uk/Biographies/Ostrowski/",
    "data_nascimento": "25 September 1893",
    "data_morte": "20 November 1986",
    "lat_nasc": 50.4500336,
    "lon_nasc": 30.5241361,
    "lat_morte": 45.9829744,
    "lon_morte": 8.9184373
  },
  {
    "nome_completo": "Alexander Pell",
    "nome_curto": "Alexander Pell",
    "link": "https://mathshistory.st-andrews.ac.uk/Biographies/Pell_Alexander/",
    "data_nascimento": "25 September 1857",
    "data_morte": "26 January 1921",
    "lat_nasc": 55.625578,
    "lon_nasc": 37.6063916,
    "lat_morte": 40.0238245,
    "lon_morte": -75.3173407
  },
  {
    "nome_completo": "Alexander Wilhelm von Brill",
    "nome_curto": "Alexander von Brill",
    "link": "https://mathshistory.st-andrews.ac.uk/Biographies/Brill/",
    "data_nascimento": "20 September 1842",
    "data_morte": "8 June 1935",
    "lat_nasc": 49.8851869,
    "lon_nasc": 8.6736295,
    "lat_morte": 48.5203263,
    "lon_morte": 9.053596
  },
  {
    "nome_completo": "Alexander Weinstein",
    "nome_curto": "Alexander Weinstein",
    "link": "https://mathshistory.st-andrews.ac.uk/Biographies/Weinstein/",
    "data_nascimento": "21 January 1897",
    "data_morte": "6 November 1979",
    "lat_nasc": 51.530018,
    "lon_nasc": 46.034683,
    "lat_morte": 38.8950368,
    "lon_morte": -77.0365427
  },
  {
    "nome_completo": "Alexander Wilson",
    "nome_curto": "Alexander Wilson",
    "link": "https://mathshistory.st-andrews.ac.uk/Biographies/Wilson_Alexander/",
    "data_nascimento": "1714",
    "data_morte": "18 October 1786",
    "lat_nasc": 56.3403902,
    "lon_nasc": -2.7955844,
    "lat_morte": 55.9533456,
    "lon_morte": -3.1883749
  },
  {
    "nome_completo": "Alexandre-Théophile Vandermonde",
    "nome_curto": "Alexandre-Theophile Vandermonde",
    "link": "https://mathshistory.st-andrews.ac.uk/Biographies/Vandermonde/",
    "data_nascimento": "28 February 1735",
    "data_morte": "1 January 1796",
    "lat_nasc": 48.8588897,
    "lon_nasc": 2.320041,
    "lat_morte": 48.8588897,
    "lon_morte": 2.320041
  },
  {
    "nome_completo": "Alexander Yule Fraser",
    "nome_curto": "Alexander Yule Fraser",
    "link": "https://mathshistory.st-andrews.ac.uk/Biographies/Fraser/",
    "data_nascimento": "3 May 1857",
    "data_morte": "9 November 1890",
    "lat_nasc": 56.7861112,
    "lon_nasc": -4.1140518,
    "lat_morte": 55.861155,
    "lon_morte": -4.2501687
  },
  {
    "nome_completo": "Alexandru Ioan Lupas",
    "nome_curto": "Alexandru Lupas",
    "link": "https://mathshistory.st-andrews.ac.uk/Biographies/Lupas/",
    "data_nascimento": "5 January 1942",
    "data_morte": "14 August 2007",
    "lat_nasc": 46.1753793,
    "lon_nasc": 21.3196342,
    "lat_morte": 45.7973912,
    "lon_morte": 24.1519202
  },
  {
    "nome_completo": "Alexis Claude Clairaut",
    "nome_curto": "Alexis Clairaut",
    "link": "https://mathshistory.st-andrews.ac.uk/Biographies/Clairaut/",
    "data_nascimento": "7 May 1713",
    "data_morte": "17 May 1765",
    "lat_nasc": 48.8588897,
    "lon_nasc": 2.320041,
    "lat_morte": 48.8588897,
    "lon_morte": 2.320041
  },
  {
    "nome_completo": "Alexis Bouvard",
    "nome_curto": "Alexis Bouvard",
    "link": "https://mathshistory.st-andrews.ac.uk/Biographies/Bouvard/",
    "data_nascimento": "27 June 1767",
    "data_morte": "7 June 1843",
    "lat_nasc": 45.8210905,
    "lon_nasc": 6.72751,
    "lat_morte": 48.8588897,
    "lon_morte": 2.320041
  },
  {
    "nome_completo": "Alexis Thérèse Petit",
    "nome_curto": "Alexis Petit",
    "link": "https://mathshistory.st-andrews.ac.uk/Biographies/Petit/",
    "data_nascimento": "2 October 1791",
    "data_morte": "21 June 1820",
    "lat_nasc": 47.6197395,
    "lon_nasc": 6.1544694,
    "lat_morte": 48.8588897,
    "lon_morte": 2.320041
  },
  {
    "nome_completo": "Alexis Fontaine des Bertins",
    "nome_curto": "Alexis Fontaine",
    "link": "https://mathshistory.st-andrews.ac.uk/Biographies/Fontaine_des_Bertins/",
    "data_nascimento": "13 August 1704",
    "data_morte": "21 August 1771",
    "lat_nasc": 45.1802143,
    "lon_nasc": 4.9297525,
    "lat_morte": 46.4937782,
    "lon_morte": 5.3887887
  },
  {
    "nome_completo": "Alfonso Nápoles Gándara",
    "nome_curto": "Alfonso Nápoles Gándara",
    "link": "https://mathshistory.st-andrews.ac.uk/Biographies/Gandara/",
    "data_nascimento": "14 October 1897",
    "data_morte": "11 November 1992",
    "lat_nasc": 18.9331321,
    "lon_nasc": -99.2599579,
    "lat_morte": 19.3207722,
    "lon_morte": -99.1514678
  },
  {
    "nome_completo": "Alfonso Maria Del Re",
    "nome_curto": "Alfonso Del Re",
    "link": "https://mathshistory.st-andrews.ac.uk/Biographies/Del_Re/",
    "data_nascimento": "8 October 1859",
    "data_morte": "5 September 1921",
    "lat_nasc": 40.902119,
    "lon_nasc": 15.430556,
    "lat_morte": 40.624906,
    "lon_morte": 14.374836
  },
  {
    "nome_completo": "Alfred Theodor Brauer",
    "nome_curto": "Alfred Brauer",
    "link": "https://mathshistory.st-andrews.ac.uk/Biographies/Brauer_Alfred/",
    "data_nascimento": "9 April 1894",
    "data_morte": "23 December 1985",
    "lat_nasc": 52.510885,
    "lon_nasc": 13.3989367,
    "lat_morte": 35.9131542,
    "lon_morte": -79.05578
  },
  {
    "nome_completo": "Alfred Barnard Basset",
    "nome_curto": "Alfred Barnard Basset",
    "link": "https://mathshistory.st-andrews.ac.uk/Biographies/Basset/",
    "data_nascimento": "25 July 1854",
    "data_morte": "5 December 1930",
    "lat_nasc": 51.4893335,
    "lon_nasc": -0.1440551,
    "lat_morte": 51.4534889,
    "lon_morte": -1.031873
  },
  {
    "nome_completo": "Rudolf Friedrich Alfred Clebsch",
    "nome_curto": "Alfred Clebsch",
    "link": "https://mathshistory.st-andrews.ac.uk/Biographies/Clebsch/",
    "data_nascimento": "19 January 1833",
    "data_morte": "7 November 1872",
    "lat_nasc": 54.7046485,
    "lon_nasc": 20.4565666,
    "lat_morte": 51.5328328,
    "lon_morte": 9.9351811
  },
  {
    "nome_completo": "Alfred Leon Foster",
    "nome_curto": "Alfred Foster",
    "link": "https://mathshistory.st-andrews.ac.uk/Biographies/Foster/",
    "data_nascimento": "13 July 1904",
    "data_morte": "24 December 1994",
    "lat_nasc": 40.7127281,
    "lon_nasc": -74.0060152,
    "lat_morte": 37.8708393,
    "lon_morte": -122.272863
  },
  {
    "nome_completo": "Alfred Cardew Dixon",
    "nome_curto": "Alfred Dixon",
    "link": "https://mathshistory.st-andrews.ac.uk/Biographies/Dixon/",
    "data_nascimento": "22 May 1865",
    "data_morte": "4 May 1936",
    "lat_nasc": 54.3404812,
    "lon_nasc": -1.4344936,
    "lat_morte": 51.5460558,
    "lon_morte": -0.2537791
  },
  {
    "nome_completo": "Alfréd Haar",
    "nome_curto": "Alfréd Haar",
    "link": "https://mathshistory.st-andrews.ac.uk/Biographies/Haar/",
    "data_nascimento": "11 October 1885",
    "data_morte": "16 March 1933",
    "lat_nasc": 47.4978789,
    "lon_nasc": 19.0402383,
    "lat_morte": 46.2546312,
    "lon_morte": 20.1486016
  },
  {
    "nome_completo": "Alfred Hoblitzelle Clifford",
    "nome_curto": "Alfred Hoblitzelle Clifford",
    "link": "https://mathshistory.st-andrews.ac.uk/Biographies/Clifford_Alfred/",
    "data_nascimento": "11 July 1908",
    "data_morte": "27 December 1992",
    "lat_nasc": 38.6280278,
    "lon_nasc": -90.1910154,
    "lat_morte": 29.9759983,
    "lon_morte": -90.0782127
  },
  {
    "nome_completo": "Alfred William Goldie",
    "nome_curto": "Alfred Goldie",
    "link": "https://mathshistory.st-andrews.ac.uk/Biographies/Goldie_Alfred/",
    "data_nascimento": "10 December 1920",
    "data_morte": "8 October 2005",
    "lat_nasc": 52.8246942,
    "lon_nasc": -2.0074547,
    "lat_morte": 54.6143136,
    "lon_morte": -2.9420899
  },
  {
    "nome_completo": "Alfred Bray Kempe",
    "nome_curto": "Alfred Kempe",
    "link": "https://mathshistory.st-andrews.ac.uk/Biographies/Kempe/",
    "data_nascimento": "6 July 1849",
    "data_morte": "21 April 1922",
    "lat_nasc": 51.4989948,
    "lon_nasc": -0.1991229,
    "lat_morte": 51.4893335,
    "lon_morte": -0.1440551
  },
  {
    "nome_completo": "Alfred Loewy",
    "nome_curto": "Alfred Loewy",
    "link": "https://mathshistory.st-andrews.ac.uk/Biographies/Loewy/",
    "data_nascimento": "20 June 1873",
    "data_morte": "25 January 1935",
    "lat_nasc": 51.6101629,
    "lon_nasc": 16.8583657,
    "lat_morte": 47.9960901,
    "lon_morte": 7.8494005
  },
  {
    "nome_completo": "Alfred Pringsheim",
    "nome_curto": "Alfred Pringsheim",
    "link": "https://mathshistory.st-andrews.ac.uk/Biographies/Pringsheim/",
    "data_nascimento": "2 September 1850",
    "data_morte": "25 June 1941",
    "lat_nasc": 50.957093,
    "lon_nasc": 17.2902698,
    "lat_morte": 47.3744489,
    "lon_morte": 8.5410422
  },
  {
    "nome_completo": "Alfréd Rényi",
    "nome_curto": "Alfréd Rényi",
    "link": "https://mathshistory.st-andrews.ac.uk/Biographies/Renyi/",
    "data_nascimento": "30 March 1921",
    "data_morte": "1 February 1970",
    "lat_nasc": 47.4978789,
    "lon_nasc": 19.0402383,
    "lat_morte": 47.4978789,
    "lon_morte": 19.0402383
  },
  {
    "nome_completo": "Alfred North Whitehead",
    "nome_curto": "Alfred North Whitehead",
    "link": "https://mathshistory.st-andrews.ac.uk/Biographies/Whitehead/",
    "data_nascimento": "15 February 1861",
    "data_morte": "30 December 1947",
    "lat_nasc": 51.2070748,
    "lon_nasc": 0.7210362,
    "lat_morte": 42.3656347,
    "lon_morte": -71.1040018
  },
  {
    "nome_completo": "Alfred Tarski",
    "nome_curto": "Alfred Tarski",
    "link": "https://mathshistory.st-andrews.ac.uk/Biographies/Tarski/",
    "data_nascimento": "14 January 1901",
    "data_morte": "26 October 1983",
    "lat_nasc": 52.2337172,
    "lon_nasc": 21.0714322,
    "lat_morte": 37.8708393,
    "lon_morte": -122.272863
  },
  {
    "nome_completo": "Alfred Rosenblatt",
    "nome_curto": "Alfred Rosenblatt",
    "link": "https://mathshistory.st-andrews.ac.uk/Biographies/Rosenblatt/",
    "data_nascimento": "22 July 1880",
    "data_morte": "7 July 1947",
    "lat_nasc": 50.0469432,
    "lon_nasc": 19.9971534,
    "lat_morte": -12.0621065,
    "lon_morte": -77.0365256
  },
  {
    "nome_completo": "Alfred Tauber",
    "nome_curto": "Alfred Tauber",
    "link": "https://mathshistory.st-andrews.ac.uk/Biographies/Tauber/",
    "data_nascimento": "5 November 1866",
    "data_morte": "26 July 1942",
    "lat_nasc": 48.1516988,
    "lon_nasc": 17.1093063,
    "lat_morte": 50.510716,
    "lon_morte": 14.149717
  },
  {
    "nome_completo": "Alfred Young",
    "nome_curto": "Alfred Young",
    "link": "https://mathshistory.st-andrews.ac.uk/Biographies/Young_Alfred/",
    "data_nascimento": "16 April 1873",
    "data_morte": "15 December 1940",
    "lat_nasc": 53.8611712,
    "lon_nasc": -2.5650945,
    "lat_morte": 52.0413171,
    "lon_morte": 0.4951819
  },
  {
    "nome_completo": "Alfredo Capelli",
    "nome_curto": "Alfredo Capelli",
    "link": "https://mathshistory.st-andrews.ac.uk/Biographies/Capelli/",
    "data_nascimento": "5 August 1855",
    "data_morte": "28 January 1910",
    "lat_nasc": 45.4641943,
    "lon_nasc": 9.1896346,
    "lat_morte": 40.8358846,
    "lon_morte": 14.2487679
  },
  {
    "nome_completo": "Ali Moustafa Mosharrafa",
    "nome_curto": "Ali Moustafa Mosharrafa",
    "link": "https://mathshistory.st-andrews.ac.uk/Biographies/Mosharrafa/",
    "data_nascimento": "11 July 1898",
    "data_morte": "15 January 1950",
    "lat_nasc": 31.4167427,
    "lon_nasc": 31.8213657,
    "lat_morte": 30.0443879,
    "lon_morte": 31.2357257
  },
  {
    "nome_completo": "Alfreds Arnolds Adolfs Meders",
    "nome_curto": "Alfreds Meders",
    "link": "https://mathshistory.st-andrews.ac.uk/Biographies/Meders/",
    "data_nascimento": "1 October 1873",
    "data_morte": "28 June 1944",
    "lat_nasc": 56.9493977,
    "lon_nasc": 24.1051846,
    "lat_morte": 52.4082663,
    "lon_morte": 16.9335199
  },
  {
    "nome_completo": "Alice Bache Gould",
    "nome_curto": "Alice Bache Gould",
    "link": "https://mathshistory.st-andrews.ac.uk/Biographies/Gould/",
    "data_nascimento": "5 January 1868",
    "data_morte": "25 July 1953",
    "lat_nasc": 42.3656347,
    "lon_nasc": -71.1040018,
    "lat_morte": 41.5902895,
    "lon_morte": -4.8268115
  },
  {
    "nome_completo": "Alice Everett",
    "nome_curto": "Alice Everett",
    "link": "https://mathshistory.st-andrews.ac.uk/Biographies/Everett/",
    "data_nascimento": "15 May 1865",
    "data_morte": "21 July 1949",
    "lat_nasc": 55.861155,
    "lon_nasc": -4.2501687,
    "lat_morte": 51.5460558,
    "lon_morte": -0.2537791
  },
  {
    "nome_completo": "Alice Elizabeth Lee",
    "nome_curto": "Alice Lee",
    "link": "https://mathshistory.st-andrews.ac.uk/Biographies/Lee/",
    "data_nascimento": "28 June 1858",
    "data_morte": "5 October 1939",
    "lat_nasc": 51.9582605,
    "lon_nasc": 0.9945379,
    "lat_morte": 50.8110774,
    "lon_morte": -0.5101687
  },
  {
    "nome_completo": "Ala al-Din Ali ibn Muhammed Ali Qushji",
    "nome_curto": "Ali Qushji",
    "link": "https://mathshistory.st-andrews.ac.uk/Biographies/Qushji/",
    "data_nascimento": "1403",
    "data_morte": "16 December 1474",
    "lat_nasc": 41.32373,
    "lon_nasc": 63.9528098,
    "lat_morte": 41.0049716,
    "lon_morte": 28.9054858
  },
  {
    "nome_completo": "Alice Turner Schafer",
    "nome_curto": "Alice T Schafer",
    "link": "https://mathshistory.st-andrews.ac.uk/Biographies/Schafer/",
    "data_nascimento": "18 June 1915",
    "data_morte": "27 September 2009",
    "lat_nasc": 37.5385087,
    "lon_nasc": -77.43428,
    "lat_morte": 42.4473175,
    "lon_morte": -71.2245003
  },
  {
    "nome_completo": "Alison Catherine Falconer Dillon",
    "nome_curto": "Alison Falconer",
    "link": "https://mathshistory.st-andrews.ac.uk/Biographies/Falconer_Alison/",
    "data_nascimento": "29 July 1920",
    "data_morte": "28 January 2011",
    "lat_nasc": 55.9328287,
    "lon_nasc": -3.1732062,
    "lat_morte": 51.5560695,
    "lon_morte": -0.2796034
  },
  {
    "nome_completo": "Alicia Boole Stott",
    "nome_curto": "Alicia Boole Stott",
    "link": "https://mathshistory.st-andrews.ac.uk/Biographies/Stott/",
    "data_nascimento": "8 June 1860",
    "data_morte": "17 December 1940",
    "lat_nasc": 51.8985136,
    "lon_nasc": -8.4726423,
    "lat_morte": 52.5310214,
    "lon_morte": -1.2649062
  },
  {
    "nome_completo": "Allen Lowell Shields",
    "nome_curto": "Allen Shields",
    "link": "https://mathshistory.st-andrews.ac.uk/Biographies/Shields/",
    "data_nascimento": "7 May 1927",
    "data_morte": "16 September 1989",
    "lat_nasc": 40.7127281,
    "lon_nasc": -74.0060152,
    "lat_morte": 42.2813722,
    "lon_morte": -83.7484616
  },
  {
    "nome_completo": "William Allen Whitworth",
    "nome_curto": "Allen Whitworth",
    "link": "https://mathshistory.st-andrews.ac.uk/Biographies/Whitworth/",
    "data_nascimento": "1 February 1840",
    "data_morte": "12 March 1905",
    "lat_nasc": 53.3360038,
    "lon_nasc": -2.7486224,
    "lat_morte": 51.4893335,
    "lon_morte": -0.1440551
  },
  {
    "nome_completo": "Alonzo Church",
    "nome_curto": "Alonzo Church",
    "link": "https://mathshistory.st-andrews.ac.uk/Biographies/Church/",
    "data_nascimento": "14 June 1903",
    "data_morte": "11 August 1995",
    "lat_nasc": 38.8950368,
    "lon_nasc": -77.0365427,
    "lat_morte": 41.240056,
    "lon_morte": -81.440667
  },
  {
    "nome_completo": "Alston Scott Householder",
    "nome_curto": "Alston Householder",
    "link": "https://mathshistory.st-andrews.ac.uk/Biographies/Householder/",
    "data_nascimento": "5 May 1904",
    "data_morte": "4 July 1993",
    "lat_nasc": 42.2713945,
    "lon_nasc": -89.093966,
    "lat_morte": 34.035591,
    "lon_morte": -118.689423
  },
  {
    "nome_completo": "Ambrosius Paul Speiser",
    "nome_curto": "Ambros Speiser",
    "link": "https://mathshistory.st-andrews.ac.uk/Biographies/Speiser/",
    "data_nascimento": "13 November 1922",
    "data_morte": "10 May 2003",
    "lat_nasc": 47.5581077,
    "lon_nasc": 7.5878261,
    "lat_morte": 47.3927146,
    "lon_morte": 8.0444448
  },
  {
    "nome_completo": "Victor Mayer Amédée Mannheim",
    "nome_curto": "Amédée Mannheim",
    "link": "https://mathshistory.st-andrews.ac.uk/Biographies/Mannheim/",
    "data_nascimento": "17 July 1831",
    "data_morte": "11 December 1906",
    "lat_nasc": 48.8588897,
    "lon_nasc": 2.320041,
    "lat_morte": 48.8588897,
    "lon_morte": 2.320041
  },
  {
    "nome_completo": "Marie-Jeanne Amélie Harlay",
    "nome_curto": "Amélie Harlay",
    "link": "https://mathshistory.st-andrews.ac.uk/Biographies/Harlay/",
    "data_nascimento": "1768",
    "data_morte": "8 November 1832",
    "lat_nasc": 48.8588897,
    "lon_nasc": 2.320041,
    "lat_morte": 48.8588897,
    "lon_morte": 2.320041
  },
  {
    "nome_completo": "Claude Ambrose Rogers",
    "nome_curto": "Ambrose Rogers",
    "link": "https://mathshistory.st-andrews.ac.uk/Biographies/Rogers/",
    "data_nascimento": "1 November 1920",
    "data_morte": "5 December 2005",
    "lat_nasc": 52.2055314,
    "lon_nasc": 0.1186637,
    "lat_morte": 51.5384287,
    "lon_morte": -0.0999051
  },
  {
    "nome_completo": "Amie Wilkinson",
    "nome_curto": "Amie Wilkinson",
    "link": "https://mathshistory.st-andrews.ac.uk/Biographies/Wilkinson_Amie/",
    "data_nascimento": "4 April 1968",
    "data_morte": null,
    "lat_nasc": 42.3554334,
    "lon_nasc": -71.060511
  },
  {
    "nome_completo": "Amy Rayson",
    "nome_curto": "Amy Rayson",
    "link": "https://mathshistory.st-andrews.ac.uk/Biographies/Rayson/",
    "data_nascimento": "26 January 1861",
    "data_morte": "27 December 1946",
    "lat_nasc": 52.2436826,
    "lon_nasc": -0.8723092,
    "lat_morte": 51.5428858,
    "lon_morte": 0.6859213
  },
  {
    "nome_completo": "José Anastácio da Cunha",
    "nome_curto": "Anastácio da Cunha",
    "link": "https://mathshistory.st-andrews.ac.uk/Biographies/Cunha/",
    "data_nascimento": "11 May 1744",
    "data_morte": "1 January 1787",
    "lat_nasc": 38.7077507,
    "lon_nasc": -9.1365919,
    "lat_morte": 38.7077507,
    "lon_morte": -9.1365919
  },
  {
    "nome_completo": "Anatoli Georgievich Vitushkin",
    "nome_curto": "Anatoli Georgievich Vitushkin",
    "link": "https://mathshistory.st-andrews.ac.uk/Biographies/Vitushkin/",
    "data_nascimento": "25 June 1931",
    "data_morte": "9 May 2004",
    "lat_nasc": 55.625578,
    "lon_nasc": 37.6063916,
    "lat_morte": 55.625578,
    "lon_morte": 37.6063916
  },
  {
    "nome_completo": "Anatolii Asirovich Goldberg",
    "nome_curto": "Anatolii Asirovich Goldberg",
    "link": "https://mathshistory.st-andrews.ac.uk/Biographies/Goldberg/",
    "data_nascimento": "2 April 1930",
    "data_morte": "11 October 2008",
    "lat_nasc": 50.4500336,
    "lon_nasc": 30.5241361,
    "lat_morte": 32.3040272,
    "lon_morte": 34.8620134
  },
  {
    "nome_completo": "Anania Širakuni",
    "nome_curto": "Ananias of Shirak",
    "link": "https://mathshistory.st-andrews.ac.uk/Biographies/Anania/",
    "data_nascimento": "about 595",
    "data_morte": "about 670",
    "lat_nasc": 40.8294349,
    "lon_nasc": 43.8276008,
    "lat_morte": 40.7696272,
    "lon_morte": 44.6736646
  },
  {
    "nome_completo": "Anatolii Volodymyrovych Skorokhod",
    "nome_curto": "Anatolii Volodymyrovych Skorokhod",
    "link": "https://mathshistory.st-andrews.ac.uk/Biographies/Skorokhod/",
    "data_nascimento": "10 September 1930",
    "data_morte": "3 January 2011",
    "lat_nasc": 49.4871968,
    "lon_nasc": 31.2718321,
    "lat_morte": 42.7338254,
    "lon_morte": -84.5546295
  },
  {
    "nome_completo": "Anatoly Mykhailovych Samoilenko",
    "nome_curto": "Anatoly Mykhailovych Samoilenko",
    "link": "https://mathshistory.st-andrews.ac.uk/Biographies/Samoilenko/",
    "data_nascimento": "2 January 1938",
    "data_morte": "4 December 2020",
    "lat_nasc": 50.9080532,
    "lon_nasc": 28.3867504,
    "lat_morte": 50.4500336,
    "lon_morte": 30.5241361
  },
  {
    "nome_completo": "Anatoly Ivanovich Malcev",
    "nome_curto": "Anatoly Malcev",
    "link": "https://mathshistory.st-andrews.ac.uk/Biographies/Malcev/",
    "data_nascimento": "27 November 1909",
    "data_morte": "7 July 1967",
    "lat_nasc": 64.6863136,
    "lon_nasc": 97.7453061,
    "lat_morte": 46.3421653,
    "lon_morte": 48.0254474
  },
  {
    "nome_completo": "Anaximander of Miletus",
    "nome_curto": "Anaximander",
    "link": "https://mathshistory.st-andrews.ac.uk/Biographies/Anaximander/",
    "data_nascimento": "611 BC",
    "data_morte": "546 BC",
    "lat_nasc": 39.294076,
    "lon_nasc": 35.2316631
  },
  {
    "nome_completo": "Anaxagoras of Clazomenae",
    "nome_curto": "Anaxagoras",
    "link": "https://mathshistory.st-andrews.ac.uk/Biographies/Anaxagoras/",
    "data_nascimento": "499 BC",
    "data_morte": "428 BC",
    "lat_nasc": 39.294076,
    "lon_nasc": 35.2316631,
    "lat_morte": 40.3486949,
    "lon_morte": 26.6899802
  },
  {
    "nome_completo": "Anders Celsius",
    "nome_curto": "Anders Celsius",
    "link": "https://mathshistory.st-andrews.ac.uk/Biographies/Celsius/",
    "data_nascimento": "11 November 1701",
    "data_morte": "25 April 1744",
    "lat_nasc": 59.8586126,
    "lon_nasc": 17.6387436,
    "lat_morte": 59.8586126,
    "lon_morte": 17.6387436
  },
  {
    "nome_completo": "Anders Johan Lexell",
    "nome_curto": "Anders Lexell",
    "link": "https://mathshistory.st-andrews.ac.uk/Biographies/Lexell/",
    "data_nascimento": "24 December 1740",
    "data_morte": "11 December 1784",
    "lat_nasc": 60.4517531,
    "lon_nasc": 22.2670522,
    "lat_morte": 59.938732,
    "lon_morte": 30.316229
  },
  {
    "nome_completo": "Anderson Gray McKendrick",
    "nome_curto": "Anderson McKendrick",
    "link": "https://mathshistory.st-andrews.ac.uk/Biographies/McKendrick/",
    "data_nascimento": "8 September 1876",
    "data_morte": "30 May 1943",
    "lat_nasc": 55.9533456,
    "lon_nasc": -3.1883749,
    "lat_morte": 57.1935592,
    "lon_morte": -3.8262262
  },
  {
    "nome_completo": "Andor Kertész",
    "nome_curto": "Andor Kertész",
    "link": "https://mathshistory.st-andrews.ac.uk/Biographies/Kertesz/",
    "data_nascimento": "19 February 1929",
    "data_morte": "3 April 1974",
    "lat_nasc": 46.6438656,
    "lon_nasc": 21.2747575,
    "lat_morte": 47.4978789,
    "lon_morte": 19.0402383
  },
  {
    "nome_completo": "András Hajnal",
    "nome_curto": "András Hajnal",
    "link": "https://mathshistory.st-andrews.ac.uk/Biographies/Hajnal/",
    "data_nascimento": "13 May 1931",
    "data_morte": "30 July 2016",
    "lat_nasc": 47.4978789,
    "lon_nasc": 19.0402383,
    "lat_morte": 47.4978789,
    "lon_morte": 19.0402383
  },
  {
    "nome_completo": "András P Huhn",
    "nome_curto": "András Huhn",
    "link": "https://mathshistory.st-andrews.ac.uk/Biographies/Huhn/",
    "data_nascimento": "26 January 1947",
    "data_morte": "6 June 1985",
    "lat_nasc": 46.2546312,
    "lon_nasc": 20.1486016,
    "lat_morte": 46.2546312,
    "lon_morte": 20.1486016
  },
  {
    "nome_completo": "Anders Wiman",
    "nome_curto": "Anders Wiman",
    "link": "https://mathshistory.st-andrews.ac.uk/Biographies/Wiman/",
    "data_nascimento": "11 February 1865",
    "data_morte": "13 August 1959",
    "lat_nasc": 55.6047725,
    "lon_nasc": 12.9881047,
    "lat_morte": 55.7029296,
    "lon_morte": 13.1929449
  },
  {
    "nome_completo": "André Bloch",
    "nome_curto": "André Bloch",
    "link": "https://mathshistory.st-andrews.ac.uk/Biographies/Bloch/",
    "data_nascimento": "20 November 1893",
    "data_morte": "11 October 1948",
    "lat_nasc": 47.2380222,
    "lon_nasc": 6.0243622,
    "lat_morte": 48.8588897,
    "lon_morte": 2.320041
  },
  {
    "nome_completo": "András Rapcsák",
    "nome_curto": "András Rapcsák",
    "link": "https://mathshistory.st-andrews.ac.uk/Biographies/Rapcsak/",
    "data_nascimento": "12 December 1914",
    "data_morte": "16 October 1993",
    "lat_nasc": 46.4171344,
    "lon_nasc": 20.3196068,
    "lat_morte": 47.531399,
    "lon_morte": 21.6259782
  },
  {
    "nome_completo": "André Lichnerowicz",
    "nome_curto": "André Lichnerowicz",
    "link": "https://mathshistory.st-andrews.ac.uk/Biographies/Lichnerowicz/",
    "data_nascimento": "21 January 1915",
    "data_morte": "11 December 1998",
    "lat_nasc": 46.5857669,
    "lon_nasc": 3.05804,
    "lat_morte": 48.8588897,
    "lon_morte": 2.320041
  },
  {
    "nome_completo": "Andre-Louis Cholesky",
    "nome_curto": "Andre-Louis Cholesky",
    "link": "https://mathshistory.st-andrews.ac.uk/Biographies/Cholesky/",
    "data_nascimento": "15 October 1875",
    "data_morte": "31 August 1918",
    "lat_nasc": 45.2158078,
    "lon_nasc": -0.18603,
    "lat_morte": 48.8218014,
    "lon_morte": 2.364219
  },
  {
    "nome_completo": "André Marie Ampère",
    "nome_curto": "André-Marie Ampère",
    "link": "https://mathshistory.st-andrews.ac.uk/Biographies/Ampere/",
    "data_nascimento": "20 January 1775",
    "data_morte": "10 June 1836",
    "lat_nasc": 45.7578137,
    "lon_nasc": 4.8320114,
    "lat_morte": 47.0706778,
    "lon_morte": 3.0029271
  },
  {
    "nome_completo": "André Abraham Weil",
    "nome_curto": "André Weil",
    "link": "https://mathshistory.st-andrews.ac.uk/Biographies/Weil/",
    "data_nascimento": "6 May 1906",
    "data_morte": "6 August 1998",
    "lat_nasc": 48.8588897,
    "lon_nasc": 2.320041,
    "lat_morte": 40.3496953,
    "lon_morte": -74.6597376
  },
  {
    "nome_completo": "André Sainte-Laguë",
    "nome_curto": "André Sainte-Laguë",
    "link": "https://mathshistory.st-andrews.ac.uk/Biographies/Sainte-Lague/",
    "data_nascimento": "20 April 1882",
    "data_morte": "18 January 1950",
    "lat_nasc": 44.3304649,
    "lon_nasc": 0.0097616,
    "lat_morte": 48.8588897,
    "lon_morte": 2.320041
  },
  {
    "nome_completo": "Andrea Tacquet",
    "nome_curto": "Andrea Tacquet",
    "link": "https://mathshistory.st-andrews.ac.uk/Biographies/Tacquet/",
    "data_nascimento": "23 June 1612",
    "data_morte": "22 December 1660",
    "lat_nasc": 51.2211097,
    "lon_nasc": 4.3997081,
    "lat_morte": 51.2211097,
    "lon_morte": 4.3997081
  },
  {
    "nome_completo": "Andreas Speiser",
    "nome_curto": "Andreas Speiser",
    "link": "https://mathshistory.st-andrews.ac.uk/Biographies/Speiser_Andreas/",
    "data_nascimento": "10 June 1885",
    "data_morte": "12 October 1970",
    "lat_nasc": 47.5581077,
    "lon_nasc": 7.5878261,
    "lat_morte": 47.5581077,
    "lon_morte": 7.5878261
  },
  {
    "nome_completo": "Andrei Andreevich Bolibrukh",
    "nome_curto": "Andrei Andreevich Bolibrukh",
    "link": "https://mathshistory.st-andrews.ac.uk/Biographies/Bolibrukh/",
    "data_nascimento": "30 January 1950",
    "data_morte": "11 November 2003",
    "lat_nasc": 55.625578,
    "lon_nasc": 37.6063916,
    "lat_morte": 55.625578,
    "lon_morte": 37.6063916
  },
  {
    "nome_completo": "Andrei Andreyevich Markov",
    "nome_curto": "Andrei Andreyevich Markov",
    "link": "https://mathshistory.st-andrews.ac.uk/Biographies/Markov/",
    "data_nascimento": "14 June 1856",
    "data_morte": "20 July 1922",
    "lat_nasc": 54.6295687,
    "lon_nasc": 39.7425039
  },
  {
    "nome_completo": "Andreas Floer",
    "nome_curto": "Andreas Floer",
    "link": "https://mathshistory.st-andrews.ac.uk/Biographies/Floer/",
    "data_nascimento": "23 August 1956",
    "data_morte": "15 May 1991",
    "lat_nasc": 51.434999,
    "lon_nasc": 6.759562,
    "lat_morte": 51.4818111,
    "lon_morte": 7.2196635
  },
  {
    "nome_completo": "Andrei Petrovich Kiselev",
    "nome_curto": "Andrei Petrovich Kiselev",
    "link": "https://mathshistory.st-andrews.ac.uk/Biographies/Kiselev/",
    "data_nascimento": "30 November 1852",
    "data_morte": "8 November 1940",
    "lat_nasc": 64.6863136,
    "lon_nasc": 97.7453061,
    "lat_morte": 59.938732,
    "lon_morte": 30.316229
  },
  {
    "nome_completo": "Andrei Mikhailovich Razmadze",
    "nome_curto": "Andrei Razmadze",
    "link": "https://mathshistory.st-andrews.ac.uk/Biographies/Razmadze/",
    "data_nascimento": "11 August 1889",
    "data_morte": "2 October 1929",
    "lat_nasc": 42.1645985,
    "lon_nasc": 42.3460344,
    "lat_morte": 46.3421653,
    "lon_morte": 48.0254474
  },
  {
    "nome_completo": "Andrei Yuryevich Okounkov",
    "nome_curto": "Andrei Yuryevich Okounkov",
    "link": "https://mathshistory.st-andrews.ac.uk/Biographies/Okounkov/",
    "data_nascimento": "26 July 1969",
    "data_morte": null,
    "lat_nasc": 55.625578,
    "lon_nasc": 37.6063916
  },
  {
    "nome_completo": "Andrew Russell Forsyth",
    "nome_curto": "Andrew Forsyth",
    "link": "https://mathshistory.st-andrews.ac.uk/Biographies/Forsyth/",
    "data_nascimento": "18 June 1858",
    "data_morte": "2 June 1942",
    "lat_nasc": 55.861155,
    "lon_nasc": -4.2501687,
    "lat_morte": 51.4893335,
    "lon_morte": -0.1440551
  },
  {
    "nome_completo": "Andrei Nikolaevich Tikhonov",
    "nome_curto": "Andrei Tikhonov",
    "link": "https://mathshistory.st-andrews.ac.uk/Biographies/Tikhonov/",
    "data_nascimento": "30 October 1906",
    "data_morte": "7 October 1993",
    "lat_nasc": 54.77897,
    "lon_nasc": 32.0471812,
    "lat_morte": 55.625578,
    "lon_morte": 37.6063916
  },
  {
    "nome_completo": "Andrew Mattei Gleason",
    "nome_curto": "Andrew Gleason",
    "link": "https://mathshistory.st-andrews.ac.uk/Biographies/Gleason/",
    "data_nascimento": "4 November 1921",
    "data_morte": "17 October 2008",
    "lat_nasc": 36.7394421,
    "lon_nasc": -119.78483,
    "lat_morte": 42.3656347,
    "lon_morte": -71.1040018
  },
  {
    "nome_completo": "Andrew Gray",
    "nome_curto": "Andrew Gray",
    "link": "https://mathshistory.st-andrews.ac.uk/Biographies/Gray_Andrew/",
    "data_nascimento": "2 July 1847",
    "data_morte": "10 October 1925",
    "lat_nasc": 56.1348998,
    "lon_nasc": -3.3134751,
    "lat_morte": 55.861155,
    "lon_morte": -4.2501687
  },
  {
    "nome_completo": "Andrew Searle Hart",
    "nome_curto": "Andrew Hart",
    "link": "https://mathshistory.st-andrews.ac.uk/Biographies/Hart/",
    "data_nascimento": "14 March 1811",
    "data_morte": "13 April 1890",
    "lat_nasc": 52.661252,
    "lon_nasc": -8.6301239,
    "lat_morte": 55.0843453,
    "lon_morte": -7.293862
  },
  {
    "nome_completo": "Andrew John Wiles",
    "nome_curto": "Andrew Wiles",
    "link": "https://mathshistory.st-andrews.ac.uk/Biographies/Wiles/",
    "data_nascimento": "11 April 1953",
    "data_morte": null,
    "lat_nasc": 52.2055314,
    "lon_nasc": 0.1186637
  },
  {
    "nome_completo": "Andrew Jeffrey Gunion Barclay",
    "nome_curto": "Andrew Jeffrey Gunion Barclay",
    "link": "https://mathshistory.st-andrews.ac.uk/Biographies/Barclay/",
    "data_nascimento": "1849",
    "data_morte": "15 September 1943",
    "lat_nasc": 56.7861112,
    "lon_nasc": -4.1140518,
    "lat_morte": 51.4893335,
    "lon_morte": -0.1440551
  },
  {
    "nome_completo": "Andrew White Young",
    "nome_curto": "Andrew Young",
    "link": "https://mathshistory.st-andrews.ac.uk/Biographies/Young_Andrew/",
    "data_nascimento": "10 October 1891",
    "data_morte": "20 July 1968",
    "lat_nasc": 56.7861112,
    "lon_nasc": -4.1140518,
    "lat_morte": 55.9533456,
    "lon_morte": -3.1883749
  },
  {
    "nome_completo": "Andrey Nikolaevich Kolmogorov",
    "nome_curto": "Andrey Kolmogorov",
    "link": "https://mathshistory.st-andrews.ac.uk/Biographies/Kolmogorov/",
    "data_nascimento": "25 April 1903",
    "data_morte": "20 October 1987",
    "lat_nasc": 64.6863136,
    "lon_nasc": 97.7453061,
    "lat_morte": 55.625578,
    "lon_morte": 37.6063916
  },
  {
    "nome_completo": "Andrzej Tadeusz Alexiewicz",
    "nome_curto": "Andrzej Alexiewicz",
    "link": "https://mathshistory.st-andrews.ac.uk/Biographies/Alexiewicz/",
    "data_nascimento": "11 February 1917",
    "data_morte": "11 July 1995",
    "lat_nasc": 49.4871968,
    "lon_nasc": 31.2718321,
    "lat_morte": 52.4082663,
    "lon_morte": 16.9335199
  },
  {
    "nome_completo": "Andrzej Sołtysiak",
    "nome_curto": "Andrzej Sołtysiak",
    "link": "https://mathshistory.st-andrews.ac.uk/Biographies/Soltysiak/",
    "data_nascimento": "1 December 1950",
    "data_morte": null,
    "lat_nasc": 54.040092,
    "lon_nasc": 21.7713092
  },
  {
    "nome_completo": "Andrzej Mostowski",
    "nome_curto": "Andrzej Mostowski",
    "link": "https://mathshistory.st-andrews.ac.uk/Biographies/Mostowski/",
    "data_nascimento": "1 November 1913",
    "data_morte": "22 August 1975",
    "lat_nasc": 49.4871968,
    "lon_nasc": 31.2718321,
    "lat_morte": 49.2608724,
    "lon_morte": -123.113952
  },
  {
    "nome_completo": "Andrzej Bernard Turowicz",
    "nome_curto": "Andrzej Turowicz",
    "link": "https://mathshistory.st-andrews.ac.uk/Biographies/Turowicz/",
    "data_nascimento": "28 October 1904",
    "data_morte": "24 November 1989",
    "lat_nasc": 50.0544952,
    "lon_nasc": 22.501379,
    "lat_morte": 50.0157359,
    "lon_morte": 19.8090243
  },
  {
    "nome_completo": "Andrew Paul Guinand",
    "nome_curto": "Andy Guinand",
    "link": "https://mathshistory.st-andrews.ac.uk/Biographies/Guinand/",
    "data_nascimento": "3 March 1912",
    "data_morte": "22 March 1987",
    "lat_nasc": -34.1743516,
    "lon_nasc": 140.7468863,
    "lat_morte": 44.3048009,
    "lon_morte": -78.3199496
  },
  {
    "nome_completo": "Angelo Genocchi",
    "nome_curto": "Angelo Genocchi",
    "link": "https://mathshistory.st-andrews.ac.uk/Biographies/Genocchi/",
    "data_nascimento": "5 March 1817",
    "data_morte": "7 March 1889",
    "lat_nasc": 44.8476352,
    "lon_nasc": 9.6665313,
    "lat_morte": 45.0677551,
    "lon_morte": 7.6824892
  },
  {
    "nome_completo": "Ángel Palacio Gros",
    "nome_curto": "Ángel Gros",
    "link": "https://mathshistory.st-andrews.ac.uk/Biographies/Palacio_Gros/",
    "data_nascimento": "3 October 1913",
    "data_morte": "19 August 1990",
    "lat_nasc": 41.6521342,
    "lon_nasc": -0.8809428,
    "lat_morte": 40.4167047,
    "lon_morte": -3.7035825
  },
  {
    "nome_completo": "Anna Adelaide Stafford Henriques",
    "nome_curto": "Anna Adelaide Stafford Henriques",
    "link": "https://mathshistory.st-andrews.ac.uk/Biographies/Henriques/",
    "data_nascimento": "20 August 1905",
    "data_morte": "28 November 2004",
    "lat_nasc": 41.8755616,
    "lon_nasc": -87.6244212,
    "lat_morte": 38.8476125,
    "lon_morte": -77.1263682
  },
  {
    "nome_completo": "Anna Margaret Mullikin",
    "nome_curto": "Anna Mullikin",
    "link": "https://mathshistory.st-andrews.ac.uk/Biographies/Mullikin/",
    "data_nascimento": "7 March 1893",
    "data_morte": "24 August 1975",
    "lat_nasc": 39.2908816,
    "lon_nasc": -76.610759,
    "lat_morte": 39.9527237,
    "lon_morte": -75.1635262
  },
  {
    "nome_completo": "Anna Winlock",
    "nome_curto": "Anna Winlock",
    "link": "https://mathshistory.st-andrews.ac.uk/Biographies/Winlock_Anna/",
    "data_nascimento": "15 September 1857",
    "data_morte": "4 January 1904",
    "lat_nasc": 42.3656347,
    "lon_nasc": -71.1040018,
    "lat_morte": 42.3554334,
    "lon_morte": -71.060511
  },
  {
    "nome_completo": "Anna Johnson Pell Wheeler",
    "nome_curto": "Anna Johnson Wheeler",
    "link": "https://mathshistory.st-andrews.ac.uk/Biographies/Wheeler/",
    "data_nascimento": "5 May 1883",
    "data_morte": "26 March 1966",
    "lat_nasc": 42.9956607,
    "lon_nasc": -96.485317,
    "lat_morte": 40.0238245,
    "lon_morte": -75.3173407
  },
  {
    "nome_completo": "Anne Lucy Bosworth Focke",
    "nome_curto": "Anne Bosworth",
    "link": "https://mathshistory.st-andrews.ac.uk/Biographies/Bosworth/",
    "data_nascimento": "29 September 1868",
    "data_morte": "15 May 1907",
    "lat_nasc": 42.0028761,
    "lon_nasc": -71.5147839,
    "lat_morte": 41.4996574,
    "lon_morte": -81.6936772
  },
  {
    "nome_completo": "Anneli Cahn Lax",
    "nome_curto": "Anneli Lax",
    "link": "https://mathshistory.st-andrews.ac.uk/Biographies/Lax_Anneli/",
    "data_nascimento": "23 February 1922",
    "data_morte": "24 September 1999",
    "lat_nasc": 50.2598987,
    "lon_nasc": 19.0215852,
    "lat_morte": 40.7127281,
    "lon_morte": -74.0060152
  },
  {
    "nome_completo": "Anne Philippa Cobbe",
    "nome_curto": "Anne Cobbe",
    "link": "https://mathshistory.st-andrews.ac.uk/Biographies/Cobbe/",
    "data_nascimento": "7 August 1920",
    "data_morte": "15 December 1971",
    "lat_nasc": 52.0640034,
    "lon_nasc": -0.4111138,
    "lat_morte": 51.7520131,
    "lon_morte": -1.2578499
  },
  {
    "nome_completo": "Annibale Comessatti",
    "nome_curto": "Annibale Comessatti",
    "link": "https://mathshistory.st-andrews.ac.uk/Biographies/Comessatti/",
    "data_nascimento": "30 January 1886",
    "data_morte": "13 September 1945",
    "lat_nasc": 46.0634632,
    "lon_nasc": 13.2358377,
    "lat_morte": 45.4077172,
    "lon_morte": 11.8734455
  },
  {
    "nome_completo": "Annibale Giuseppe Nicolò Giordano",
    "nome_curto": "Annibale Giordano",
    "link": "https://mathshistory.st-andrews.ac.uk/Biographies/Giordano/",
    "data_nascimento": "20 November 1769",
    "data_morte": "13 March 1835",
    "lat_nasc": 40.829811,
    "lon_nasc": 14.504436,
    "lat_morte": 48.2971626,
    "lon_morte": 4.0746257
  },
  {
    "nome_completo": "Annie Dale Biddle Andrews",
    "nome_curto": "Annie Dale Andrews",
    "link": "https://mathshistory.st-andrews.ac.uk/Biographies/Andrews_Annie/",
    "data_nascimento": "13 December 1885",
    "data_morte": "14 April 1940",
    "lat_nasc": 36.3277959,
    "lon_nasc": -119.6461565,
    "lat_morte": 36.7014631,
    "lon_morte": -118.755997
  },
  {
    "nome_completo": "Annie Louise MacKinnon Fitch",
    "nome_curto": "Annie Fitch MacKinnon",
    "link": "https://mathshistory.st-andrews.ac.uk/Biographies/MacKinnon/",
    "data_nascimento": "1 June 1868",
    "data_morte": "12 September 1940",
    "lat_nasc": 43.1301111,
    "lon_nasc": -80.7562977,
    "lat_morte": 43.077916,
    "lon_morte": -75.383377
  },
  {
    "nome_completo": "Annie Hutton Numbers",
    "nome_curto": "Annie Hutton Numbers",
    "link": "https://mathshistory.st-andrews.ac.uk/Biographies/Numbers/",
    "data_nascimento": "6 March 1897",
    "data_morte": "10 April 1988",
    "lat_nasc": 55.9533456,
    "lon_nasc": -3.1883749,
    "lat_morte": 51.6317449,
    "lon_morte": -0.75596
  },
  {
    "nome_completo": "Annie Jump Cannon",
    "nome_curto": "Annie Jump Cannon",
    "link": "https://mathshistory.st-andrews.ac.uk/Biographies/Cannon/",
    "data_nascimento": "11 December 1863",
    "data_morte": "13 April 1941",
    "lat_nasc": 39.158168,
    "lon_nasc": -75.5243682,
    "lat_morte": 42.3656347,
    "lon_morte": -71.1040018
  },
  {
    "nome_completo": "Annie Scott Dill Maunder",
    "nome_curto": "Annie Scott Dill Maunder",
    "link": "https://mathshistory.st-andrews.ac.uk/Biographies/Maunder/",
    "data_nascimento": "14 April 1868",
    "data_morte": "15 September 1947",
    "lat_nasc": 54.826115,
    "lon_nasc": -7.4627993,
    "lat_morte": 51.4570271,
    "lon_morte": -0.1932607
  },
  {
    "nome_completo": "Anthemius of Tralles",
    "nome_curto": "Anthemius",
    "link": "https://mathshistory.st-andrews.ac.uk/Biographies/Anthemius/",
    "data_nascimento": "about 474",
    "data_morte": "about 534",
    "lat_nasc": 39.294076,
    "lon_nasc": 35.2316631
  },
  {
    "nome_completo": "Anthony James Merrill Spencer",
    "nome_curto": "Anthony Spencer",
    "link": "https://mathshistory.st-andrews.ac.uk/Biographies/Spencer_Tony/",
    "data_nascimento": "23 August 1929",
    "data_morte": "26 January 2008",
    "lat_nasc": 52.4796992,
    "lon_nasc": -1.9026911,
    "lat_morte": 52.9534193,
    "lon_morte": -1.1496461
  },
  {
    "nome_completo": "Antoine-André-Louis Reynaud",
    "nome_curto": "Antoine-André-Louis Reynaud",
    "link": "https://mathshistory.st-andrews.ac.uk/Biographies/Reynaud/",
    "data_nascimento": "12 September 1771",
    "data_morte": "24 February 1844",
    "lat_nasc": 48.8588897,
    "lon_nasc": 2.320041,
    "lat_morte": 48.8588897,
    "lon_morte": 2.320041
  },
  {
    "nome_completo": "Antoine Arnauld",
    "nome_curto": "Antoine Arnauld",
    "link": "https://mathshistory.st-andrews.ac.uk/Biographies/Arnauld/",
    "data_nascimento": "6 February 1612",
    "data_morte": "6 August 1694",
    "lat_nasc": 48.8588897,
    "lon_nasc": 2.320041,
    "lat_morte": 50.8465573,
    "lon_morte": 4.351697
  },
  {
    "nome_completo": "Antoine Deparcieux",
    "nome_curto": "Antoine Deparcieux",
    "link": "https://mathshistory.st-andrews.ac.uk/Biographies/Deparcieux/",
    "data_nascimento": "28 October 1703",
    "data_morte": "2 September 1768",
    "lat_nasc": 46.603354,
    "lon_nasc": 1.8883335,
    "lat_morte": 48.8588897,
    "lon_morte": 2.320041
  },
  {
    "nome_completo": "Antiphon the Sophist",
    "nome_curto": "Antiphon",
    "link": "https://mathshistory.st-andrews.ac.uk/Biographies/Antiphon/",
    "data_nascimento": "480 BC",
    "data_morte": "411 BC",
    "lat_nasc": 38.9953683,
    "lon_nasc": 21.9877132,
    "lat_morte": 37.9755648,
    "lon_morte": 23.7348324
  },
  {
    "nome_completo": "Marc-Antoine Parseval des Chênes",
    "nome_curto": "Antoine Parseval",
    "link": "https://mathshistory.st-andrews.ac.uk/Biographies/Parseval/",
    "data_nascimento": "27 April 1755",
    "data_morte": "16 August 1836",
    "lat_nasc": 48.5944191,
    "lon_nasc": 6.3325266,
    "lat_morte": 48.8588897,
    "lon_morte": 2.320041
  },
  {
    "nome_completo": "Antoine Meyer",
    "nome_curto": "Antoine Meyer",
    "link": "https://mathshistory.st-andrews.ac.uk/Biographies/Meyer_Antoine/",
    "data_nascimento": "31 May 1801",
    "data_morte": "29 April 1857",
    "lat_nasc": 49.5999681,
    "lon_nasc": 6.1342493,
    "lat_morte": 50.4708159,
    "lon_morte": 5.7735459
  },
  {
    "nome_completo": "Anton Davidoglu",
    "nome_curto": "Anton Davidoglu",
    "link": "https://mathshistory.st-andrews.ac.uk/Biographies/Davidoglu/",
    "data_nascimento": "30 June 1876",
    "data_morte": "27 May 1958",
    "lat_nasc": 45.9852129,
    "lon_nasc": 24.6859225,
    "lat_morte": 44.4378654,
    "lon_morte": 26.0863631
  },
  {
    "nome_completo": "Anton Kazimirovich Suschkevich",
    "nome_curto": "Anton Kazimirovich Suschkevich",
    "link": "https://mathshistory.st-andrews.ac.uk/Biographies/Suschkevich/",
    "data_nascimento": "23 January 1889",
    "data_morte": "30 August 1961",
    "lat_nasc": 51.368015,
    "lon_nasc": 42.075169,
    "lat_morte": 49.9923181,
    "lon_morte": 36.2310146
  },
  {
    "nome_completo": "Anton Dimitrija Bilimovic",
    "nome_curto": "Anton Dimitrija Bilimovic",
    "link": "https://mathshistory.st-andrews.ac.uk/Biographies/Bilimovic/",
    "data_nascimento": "20 July 1879",
    "data_morte": "17 September 1970",
    "lat_nasc": 49.4871968,
    "lon_nasc": 31.2718321,
    "lat_morte": 44.0243229,
    "lon_morte": 21.0765743
  },
  {
    "nome_completo": "Antoni Szczepan Zygmund",
    "nome_curto": "Antoni Zygmund",
    "link": "https://mathshistory.st-andrews.ac.uk/Biographies/Zygmund/",
    "data_nascimento": "25 December 1900",
    "data_morte": "30 May 1992",
    "lat_nasc": 52.2337172,
    "lon_nasc": 21.0714322,
    "lat_morte": 41.8755616,
    "lon_morte": -87.6244212
  },
  {
    "nome_completo": "Antoni Maria Emilian Hoborski",
    "nome_curto": "Antoni Hoborski",
    "link": "https://mathshistory.st-andrews.ac.uk/Biographies/Hoborski/",
    "data_nascimento": "1 April 1879",
    "data_morte": "9 February 1940",
    "lat_nasc": 50.0259883,
    "lon_nasc": 20.9640584,
    "lat_morte": 52.7590373,
    "lon_morte": 7.4564975
  },
  {
    "nome_completo": "Antonio Maria Bordoni",
    "nome_curto": "Antonio Bordoni",
    "link": "https://mathshistory.st-andrews.ac.uk/Biographies/Bordoni/",
    "data_nascimento": "20 July 1789",
    "data_morte": "26 March 1860",
    "lat_nasc": 45.4948952,
    "lon_nasc": 6.3846604,
    "lat_morte": 45.0368546,
    "lon_morte": 9.1378251
  },
  {
    "nome_completo": "Anzelm Iwanik",
    "nome_curto": "Anzelm Iwanik",
    "link": "https://mathshistory.st-andrews.ac.uk/Biographies/Iwanik/",
    "data_nascimento": "21 April 1946",
    "data_morte": "28 September 1998",
    "lat_nasc": 51.5194865,
    "lon_nasc": 20.0337541,
    "lat_morte": 51.1263106,
    "lon_morte": 16.9781963
  },
  {
    "nome_completo": "Apastamba",
    "nome_curto": "Apastamba",
    "link": "https://mathshistory.st-andrews.ac.uk/Biographies/Apastamba/",
    "data_nascimento": "about 600 BC",
    "data_morte": "about 600 BC",
    "lat_nasc": 22.3511148,
    "lon_nasc": 78.6677428,
    "lat_morte": 22.3511148,
    "lon_morte": 78.6677428
  },
  {
    "nome_completo": "Antonio Maria Lorgna",
    "nome_curto": "Antonio Mario Lorgna",
    "link": "https://mathshistory.st-andrews.ac.uk/Biographies/Lorgna/",
    "data_nascimento": "18 October 1735",
    "data_morte": "28 June 1796",
    "lat_nasc": 42.6384261,
    "lon_nasc": 12.674297,
    "lat_morte": 42.6384261,
    "lon_morte": 12.674297
  },
  {
    "nome_completo": "Archibald Goldie",
    "nome_curto": "Archibald Goldie",
    "link": "https://mathshistory.st-andrews.ac.uk/Biographies/Goldie/",
    "data_nascimento": "7 July 1888",
    "data_morte": "24 January 1964",
    "lat_nasc": 55.898767,
    "lon_nasc": -3.7001955,
    "lat_morte": 51.4893335,
    "lon_morte": -0.1440551
  },
  {
    "nome_completo": "Apollonius of Perga",
    "nome_curto": "Apollonius",
    "link": "https://mathshistory.st-andrews.ac.uk/Biographies/Apollonius/",
    "data_nascimento": "about 262 BC",
    "data_morte": "about 190 BC",
    "lat_nasc": 36.8865728,
    "lon_nasc": 30.7030242,
    "lat_morte": 31.1991806,
    "lon_morte": 29.8951716
  },
  {
    "nome_completo": "Archibald Milne",
    "nome_curto": "Archibald Milne",
    "link": "https://mathshistory.st-andrews.ac.uk/Biographies/Milne_Archibald/",
    "data_nascimento": "30 April 1875",
    "data_morte": "19 September 1958",
    "lat_nasc": 55.9533456,
    "lon_nasc": -3.1883749,
    "lat_morte": 55.9533456,
    "lon_morte": -3.1883749
  },
  {
    "nome_completo": "Archibald Read Richardson",
    "nome_curto": "Archibald Richardson",
    "link": "https://mathshistory.st-andrews.ac.uk/Biographies/Richardson_Archibald/",
    "data_nascimento": "21 August 1881",
    "data_morte": "4 November 1954",
    "lat_nasc": 51.4893335,
    "lon_nasc": -0.1440551,
    "lat_morte": -33.9288301,
    "lon_morte": 18.4172197
  },
  {
    "nome_completo": "Archibald James Macintyre",
    "nome_curto": "Archibald Macintyre",
    "link": "https://mathshistory.st-andrews.ac.uk/Biographies/Macintyre_Archibald/",
    "data_nascimento": "3 July 1908",
    "data_morte": "4 August 1967",
    "lat_nasc": 53.3806626,
    "lon_nasc": -1.4702278,
    "lat_morte": 40.2253569,
    "lon_morte": -82.6881395
  },
  {
    "nome_completo": "Archil Kirillovich Kharadze",
    "nome_curto": "Archil Kirillovich Kharadze",
    "link": "https://mathshistory.st-andrews.ac.uk/Biographies/Kharadze/",
    "data_nascimento": "21 April 1895",
    "data_morte": "17 December 1976",
    "lat_nasc": 42.0463041,
    "lon_nasc": 42.9494167
  },
  {
    "nome_completo": "Archie Alphonso Alexander",
    "nome_curto": "Archie Alexander",
    "link": "https://mathshistory.st-andrews.ac.uk/Biographies/Alexander_Archie/",
    "data_nascimento": "14 May 1888",
    "data_morte": "4 January 1958",
    "lat_nasc": 41.0195659,
    "lon_nasc": -92.4116886,
    "lat_morte": 41.5868654,
    "lon_morte": -93.6249494
  },
  {
    "nome_completo": "Archimedes of Syracuse",
    "nome_curto": "Archimedes",
    "link": "https://mathshistory.st-andrews.ac.uk/Biographies/Archimedes/",
    "data_nascimento": "287 BC",
    "data_morte": "212 BC",
    "lat_nasc": 37.0646139,
    "lon_nasc": 15.2907196,
    "lat_morte": 37.0646139,
    "lon_morte": 15.2907196
  },
  {
    "nome_completo": "Archytas of Tarentum",
    "nome_curto": "Archytas",
    "link": "https://mathshistory.st-andrews.ac.uk/Biographies/Archytas/",
    "data_nascimento": "about 428 BC",
    "data_morte": "about 350 BC",
    "lat_nasc": 40.5488156,
    "lon_nasc": 17.0805801
  },
  {
    "nome_completo": "Jean Robert Argand",
    "nome_curto": "Argand",
    "link": "https://mathshistory.st-andrews.ac.uk/Biographies/Argand/",
    "data_nascimento": "(possibly) 18 July 1768",
    "data_morte": "(possibly) 13 August 1822",
    "lat_nasc": 46.2017559,
    "lon_nasc": 6.1466014,
    "lat_morte": 48.8588897,
    "lon_morte": 2.320041
  },
  {
    "nome_completo": "Arend Heyting",
    "nome_curto": "Arend Heyting",
    "link": "https://mathshistory.st-andrews.ac.uk/Biographies/Heyting/",
    "data_nascimento": "9 May 1898",
    "data_morte": "9 July 1980",
    "lat_nasc": 52.3730796,
    "lon_nasc": 4.8924534,
    "lat_morte": 46.0050102,
    "lon_morte": 8.9520281
  },
  {
    "nome_completo": "Aristaeus the Elder",
    "nome_curto": "Aristaeus",
    "link": "https://mathshistory.st-andrews.ac.uk/Biographies/Aristaeus/",
    "data_nascimento": "about 370 BC",
    "data_morte": "about 300 BC",
    "lat_nasc": 38.9953683,
    "lon_nasc": 21.9877132
  },
  {
    "nome_completo": "Argelia Velez-Rodriguez",
    "nome_curto": "Argelia Velez-Rodriguez",
    "link": "https://mathshistory.st-andrews.ac.uk/Biographies/Velez-Rodriguez/",
    "data_nascimento": "23 November 1936",
    "data_morte": null,
    "lat_nasc": 23.135305,
    "lon_nasc": -82.3589631
  },